{"type":"FeatureCollection","features":[{"type":"Feature","properties":{"OBJECTID":264,"Name":"2 Witches Winery and Brewing Co","Address":"209 Trade Street","City":"Danville","State":"Virginia","Zip":24541,"Phone":"434-549-2739","Weddings":" ","PicnicArea":" ","Overnight":" ","Region":"Southern Virginia","FoodAvailable":" ","GiftShop":" ","TastingRoom":" ","GroupTour":" ","PrivateParty":" ","TastingFee":" ","Website":"http://www.2witcheswinebrew.com","VaWine_Website":"https://www.virginiawine.org/wineries/1699","VaWine_ID":1699,"GlobalID":"{AC3C356F-DB1B-4D86-917B-762EE7AE97FF}"},"geometry":{"type":"Point","coordinates":[-79.42098287922109,36.58528836172965]}},{"type":"Feature","properties":{"OBJECTID":265,"Name":"50 West Vineyards","Address":"39060 John Mosby Highway","City":"Middleburg","State":"Virginia","Zip":20117,"Phone":"(571) 367 4760","Weddings":"Y","PicnicArea":"Y","Overnight":" ","Region":"Northern Virginia","FoodAvailable":" ","GiftShop":" ","TastingRoom":" ","GroupTour":" ","PrivateParty":"Y","TastingFee":"Y","Website":"https://www.50westvineyards.com/","VaWine_Website":"https://www.virginiawine.org/wineries/1832","VaWine_ID":1832,"GlobalID":"{E6D9E31B-B515-4743-BA7F-87F1B931D338}"},"geometry":{"type":"Point","coordinates":[-77.6582969603589,38.9812140716471]}},{"type":"Feature","properties":{"OBJECTID":266,"Name":"612 Vineyard","Address":"864 Shepherds Mill Road","City":"Berryville","State":"Virginia","Zip":22611,"Phone":"540-535-6689","Weddings":"Y","PicnicArea":" ","Overnight":" ","Region":"Shenandoah Valley","FoodAvailable":"Y","GiftShop":" ","TastingRoom":" ","GroupTour":" ","PrivateParty":"Y","TastingFee":" ","Website":"http://www.612vineyard.com/","VaWine_Website":"https://www.virginiawine.org/wineries/1723","VaWine_ID":1723,"GlobalID":"{83EF8D04-BB6C-409C-B651-A48FF1721835}"},"geometry":{"type":"Point","coordinates":[-77.90273127681648,39.14224597834118]}},{"type":"Feature","properties":{"OBJECTID":267,"Name":"8 Chains North Winery","Address":"38593 Daymont Lane","City":"Waterford","State":"Virginia","Zip":"20197-1038","Phone":"571-439-2255","Weddings":" ","PicnicArea":" ","Overnight":" ","Region":"Northern Virginia","FoodAvailable":" ","GiftShop":" ","TastingRoom":" ","GroupTour":" ","PrivateParty":" ","TastingFee":" ","Website":"http://www.8chainsnorth.com/","VaWine_Website":"https://www.virginiawine.org/wineries/944","VaWine_ID":944,"GlobalID":"{CAADB163-411D-48FE-9C45-1C1265D69D73}"},"geometry":{"type":"Point","coordinates":[-77.66876661186221,39.178084904747884]}},{"type":"Feature","properties":{"OBJECTID":268,"Name":"868 Estate Vineyards","Address":"14001 Harpers Ferry Rd.","City":"Purcellville","State":"Virginia","Zip":20132,"Phone":"(540) 668-7008","Weddings":" ","PicnicArea":" ","Overnight":" ","Region":"Northern Virginia","FoodAvailable":" ","GiftShop":" ","TastingRoom":" ","GroupTour":" ","PrivateParty":" ","TastingFee":" ","Website":"http://www.868EstateVineyards.com","VaWine_Website":"https://www.virginiawine.org/wineries/1590","VaWine_ID":1590,"GlobalID":"{963C986E-52E4-43EB-99AB-690A69829B27}"},"geometry":{"type":"Point","coordinates":[-77.74034124280949,39.23086331264503]}},{"type":"Feature","properties":{"OBJECTID":269,"Name":"Abingdon Vineyard Winery","Address":"20530 Alvarado Rd","City":"Abingdon","State":"Virginia","Zip":24211,"Phone":"276-623-1255","Weddings":" ","PicnicArea":" ","Overnight":" ","Region":"Blue Ridge","FoodAvailable":" ","GiftShop":" ","TastingRoom":" ","GroupTour":" ","PrivateParty":" ","TastingFee":" ","Website":"http://www.abingdonwinery.com","VaWine_Website":"https://www.virginiawine.org/wineries/11","VaWine_ID":11,"GlobalID":"{1152C794-4783-4EC4-9769-41BE5907DAC1}"},"geometry":{"type":"Point","coordinates":[-81.88893340023047,36.65821960668813]}},{"type":"Feature","properties":{"OBJECTID":270,"Name":"Above Ground Winery","Address":"975 McKinley Road","City":"Middlebrook","State":"Virginia","Zip":24459,"Phone":" ","Weddings":"Y","PicnicArea":"Y","Overnight":" ","Region":"Northern Virginia","FoodAvailable":"Y","GiftShop":"Y","TastingRoom":"Y","GroupTour":"Y","PrivateParty":"Y","TastingFee":"Y","Website":"http://www.agwinery.com","VaWine_Website":"https://www.virginiawine.org/wineries/1442","VaWine_ID":1442,"GlobalID":"{D0A13D63-CD37-4DE4-8B0E-F27FD913E750}"},"geometry":{"type":"Point","coordinates":[-79.2987588273358,38.042652043768605]}},{"type":"Feature","properties":{"OBJECTID":271,"Name":"Adventure Farm","Address":"1135 Clan Chisholm Lane","City":"Earlysville","State":"VA","Zip":22936,"Phone":"434 971 8796","Weddings":" ","PicnicArea":" ","Overnight":" ","Region":"Central Virginia","FoodAvailable":" ","GiftShop":" ","TastingRoom":" ","GroupTour":" ","PrivateParty":" ","TastingFee":" ","Website":"http://www.adventurefarmvineyard.com/","VaWine_Website":"https://www.virginiawine.org/wineries/1722","VaWine_ID":1722,"GlobalID":"{FBB605A7-CAE8-4763-8DAD-883C873769BD}"},"geometry":{"type":"Point","coordinates":[-78.4607179859689,38.13490770130522]}},{"type":"Feature","properties":{"OBJECTID":272,"Name":"Afton Mountain Vineyards","Address":"234 Vineyard Lane","City":"Afton","State":"Virginia","Zip":22920,"Phone":"540-456-8667","Weddings":" ","PicnicArea":" ","Overnight":" ","Region":"Central Virginia","FoodAvailable":" ","GiftShop":" ","TastingRoom":" ","GroupTour":" ","PrivateParty":" ","TastingFee":" ","Website":"http://www.aftonmountainvineyards.com","VaWine_Website":"https://www.virginiawine.org/wineries/22","VaWine_ID":22,"GlobalID":"{D2DF7329-E18C-4513-9AE3-96646E95D878}"},"geometry":{"type":"Point","coordinates":[-78.85157245828246,38.00833073373786]}},{"type":"Feature","properties":{"OBJECTID":273,"Name":"Albemarle CiderWorks","Address":"2545 Rural Ridge Lane","City":"North Garden","State":"Virginia","Zip":22959,"Phone":"434-297-2326","Weddings":" ","PicnicArea":"Y","Overnight":" ","Region":"Central Virginia","FoodAvailable":"Y","GiftShop":" ","TastingRoom":"Y","GroupTour":"Y","PrivateParty":"Y","TastingFee":"Y","Website":"http://www.albemarleciderworks.com","VaWine_Website":"https://www.virginiawine.org/wineries/172","VaWine_ID":172,"GlobalID":"{1596EE8F-40BB-456F-A162-2C8B5DFBAA10}"},"geometry":{"type":"Point","coordinates":[-78.6498653559594,37.96654538040707]}},{"type":"Feature","properties":{"OBJECTID":274,"Name":"Altillo Vineyards","Address":"620 Level Run Rd.","City":"Hurt","State":"Va","Zip":24563,"Phone":"434-324-4160","Weddings":"Y","PicnicArea":"Y","Overnight":"Y","Region":"Southern Virginia","FoodAvailable":" ","GiftShop":" ","TastingRoom":" ","GroupTour":" ","PrivateParty":"Y","TastingFee":" ","Website":"http://www.altillovineyards.com","VaWine_Website":"https://www.virginiawine.org/wineries/1132","VaWine_ID":1132,"GlobalID":"{78861673-911A-46DC-A1BB-DE3A4951B6DD}"},"geometry":{"type":"Point","coordinates":[-79.24421198035608,37.064745465560364]}},{"type":"Feature","properties":{"OBJECTID":275,"Name":"American Way Country Wines","Address":"13750 VA-47","City":"Chase City","State":"VA","Zip":23924,"Phone":"434-262-1250","Weddings":" ","PicnicArea":" ","Overnight":" ","Region":"Southern Virginia","FoodAvailable":" ","GiftShop":" ","TastingRoom":" ","GroupTour":" ","PrivateParty":" ","TastingFee":" ","Website":"http://AMERICANWAYCOUNTRYWINES.COM","VaWine_Website":"https://www.virginiawine.org/wineries/1731","VaWine_ID":1731,"GlobalID":"{0001AF76-ED62-4ED5-8CC2-F0B597A29815}"},"geometry":{"type":"Point","coordinates":[-78.35099411779865,36.793370943985494]}},{"type":"Feature","properties":{"OBJECTID":276,"Name":"AmRhein's Wine Cellars","Address":"9243 Patterson Drive","City":"Bent Mountain","State":"Virginia","Zip":24059,"Phone":"540-929-4632","Weddings":" ","PicnicArea":" ","Overnight":" ","Region":"Blue Ridge","FoodAvailable":" ","GiftShop":" ","TastingRoom":" ","GroupTour":" ","PrivateParty":" ","TastingFee":"Y","Website":"http://www.AmRheins.com","VaWine_Website":"https://www.virginiawine.org/wineries/86","VaWine_ID":86,"GlobalID":"{8C9A01B5-5C18-49CD-9048-C0C0DB005359}"},"geometry":{"type":"Point","coordinates":[-80.15341901596118,37.12011952895411]}},{"type":"Feature","properties":{"OBJECTID":277,"Name":"Ankida Ridge Vineyards","Address":"1304 Franklin Creek Rd.","City":"Amherst","State":"VA","Zip":24521,"Phone":"434-922-7678","Weddings":" ","PicnicArea":" ","Overnight":" ","Region":"Central Virginia","FoodAvailable":" ","GiftShop":" ","TastingRoom":" ","GroupTour":" ","PrivateParty":" ","TastingFee":" ","Website":"http://www.ankidaridge.com","VaWine_Website":"https://www.virginiawine.org/wineries/1150","VaWine_ID":1150,"GlobalID":"{085C459C-7DDE-4F0F-940E-348A15CFD7D1}"},"geometry":{"type":"Point","coordinates":[-79.17429445969589,37.707719906674235]}},{"type":"Feature","properties":{"OBJECTID":278,"Name":"Arterra Wines","Address":"1808 Leeds Manor Road","City":"Delaplane","State":"VA","Zip":20144,"Phone":"540-422-3443","Weddings":"Y","PicnicArea":"Y","Overnight":" ","Region":"Northern Virginia","FoodAvailable":"Y","GiftShop":"Y","TastingRoom":"Y","GroupTour":"Y","PrivateParty":"Y","TastingFee":"Y","Website":"http://www.arterrawines.com","VaWine_Website":"https://www.virginiawine.org/wineries/1730","VaWine_ID":1730,"GlobalID":"{EE2528E4-3C44-4A24-B7B8-2CEB9A99832C}"},"geometry":{"type":"Point","coordinates":[-77.97189953760468,38.96748239771598]}},{"type":"Feature","properties":{"OBJECTID":279,"Name":"Ashton Creek Vineyard","Address":"14501 Jefferson Davis Highway","City":"Chester","State":"VA","Zip":23831,"Phone":" ","Weddings":" ","PicnicArea":" ","Overnight":" ","Region":" ","FoodAvailable":" ","GiftShop":" ","TastingRoom":" ","GroupTour":" ","PrivateParty":" ","TastingFee":"Y","Website":"http://www.ashtoncreekvineyard.com ","VaWine_Website":"https://www.virginiawine.org/wineries/1932","VaWine_ID":1932,"GlobalID":"{E51F33A9-90BC-46D0-9E2F-F760E1405D7E}"},"geometry":{"type":"Point","coordinates":[-77.40506127403647,37.32709048084262]}},{"type":"Feature","properties":{"OBJECTID":280,"Name":"Aspen Dale Winery at The Barn","Address":"11083 John Marshall Hwy","City":"Delaplane","State":"Virginia","Zip":20144,"Phone":"(540)364-1722","Weddings":" ","PicnicArea":"Y","Overnight":" ","Region":"Northern Virginia","FoodAvailable":"Y","GiftShop":"Y","TastingRoom":"Y","GroupTour":"Y","PrivateParty":"Y","TastingFee":" ","Website":"http://www.aspendalewinery.com","VaWine_Website":"https://www.virginiawine.org/wineries/212","VaWine_ID":212,"GlobalID":"{49EC4B8F-1C61-4534-A1F9-6C46BF7335AD}"},"geometry":{"type":"Point","coordinates":[-77.96133894023355,38.907799860283156]}},{"type":"Feature","properties":{"OBJECTID":281,"Name":"Athena Vineyards & Winery","Address":"3138 Jessie Dupont Memorial Hwy","City":"Heathsville","State":"Virginia","Zip":22473,"Phone":"OFC (804) 580-4944","Weddings":" ","PicnicArea":" ","Overnight":" ","Region":"Chesapeake Bay","FoodAvailable":" ","GiftShop":" ","TastingRoom":" ","GroupTour":" ","PrivateParty":" ","TastingFee":"Y","Website":"http://www.athenavineyards.com","VaWine_Website":"https://www.virginiawine.org/wineries/107","VaWine_ID":107,"GlobalID":"{ACA28372-7E56-48E6-8DE6-98EB8638167F}"},"geometry":{"type":"Point","coordinates":[-76.3709277401295,37.84242562598502]}},{"type":"Feature","properties":{"OBJECTID":282,"Name":"Autumn Hill Vineyards Blueridge Winery","Address":"301 River Dr.","City":"Stanardsville","State":"VA","Zip":22973,"Phone":"(434) 985-6100","Weddings":" ","PicnicArea":" ","Overnight":" ","Region":"Central Virginia","FoodAvailable":" ","GiftShop":" ","TastingRoom":" ","GroupTour":" ","PrivateParty":" ","TastingFee":"Y","Website":"http://www.autumnhillwine.com","VaWine_Website":"https://www.virginiawine.org/wineries/108","VaWine_ID":108,"GlobalID":"{3926148E-F4BD-4CFC-9613-9F9FC21D2274}"},"geometry":{"type":"Point","coordinates":[-78.5045472414205,38.24623143578822]}},{"type":"Feature","properties":{"OBJECTID":283,"Name":"Barboursville Vineyards","Address":"17655 Winery Road","City":"Barboursville","State":"Virginia","Zip":22923,"Phone":"(540) 832-3824","Weddings":" ","PicnicArea":" ","Overnight":" ","Region":"Central Virginia","FoodAvailable":" ","GiftShop":" ","TastingRoom":" ","GroupTour":" ","PrivateParty":" ","TastingFee":"Y","Website":"http://bbvwine.com","VaWine_Website":"https://www.virginiawine.org/wineries/34","VaWine_ID":34,"GlobalID":"{99AE7B86-B6BF-4B80-8F0A-BCFC97AEE24A}"},"geometry":{"type":"Point","coordinates":[-78.27702859881958,38.16024714510086]}},{"type":"Feature","properties":{"OBJECTID":284,"Name":"Barrel Oak Winery","Address":"3623 Grove Ln","City":"Delaplane","State":"VIRGINIA","Zip":20144,"Phone":"540-364-6402","Weddings":" ","PicnicArea":" ","Overnight":" ","Region":"Northern Virginia","FoodAvailable":" ","GiftShop":" ","TastingRoom":" ","GroupTour":" ","PrivateParty":" ","TastingFee":" ","Website":"http://www.barreloak.com","VaWine_Website":"https://www.virginiawine.org/wineries/102","VaWine_ID":102,"GlobalID":"{C064D2B9-FCF3-4EF8-8DD6-0C93D1E10169}"},"geometry":{"type":"Point","coordinates":[-77.90378230397172,38.88300151844371]}},{"type":"Feature","properties":{"OBJECTID":285,"Name":"Barren Ridge Vineyards","Address":"984 Barren Ridge Road","City":"Fishersville","State":"VA","Zip":22939,"Phone":"540-248-3300","Weddings":"Y","PicnicArea":"Y","Overnight":" ","Region":"Shenandoah Valley","FoodAvailable":"Y","GiftShop":"Y","TastingRoom":"Y","GroupTour":"Y","PrivateParty":"Y","TastingFee":"Y","Website":"http://www.barrenridgevineyards.com","VaWine_Website":"https://www.virginiawine.org/wineries/32","VaWine_ID":32,"GlobalID":"{7DFD11AB-54AF-4942-BB95-75956C745653}"},"geometry":{"type":"Point","coordinates":[-78.95587668836471,38.13368976247506]}},{"type":"Feature","properties":{"OBJECTID":286,"Name":"Beliveau Estate Winery","Address":"5415 Gallion Ridge Road","City":"Blacksburg","State":"VA","Zip":24060,"Phone":"540-961-0505","Weddings":" ","PicnicArea":" ","Overnight":" ","Region":"Blue Ridge","FoodAvailable":" ","GiftShop":" ","TastingRoom":" ","GroupTour":" ","PrivateParty":" ","TastingFee":" ","Website":"http://www.BeliveauEstate.com","VaWine_Website":"https://www.virginiawine.org/wineries/1477","VaWine_ID":1477,"GlobalID":"{CEBD818B-6CFB-41B6-8DF3-F279133CAAE4}"},"geometry":{"type":"Point","coordinates":[-80.26793825702718,37.31665814140472]}},{"type":"Feature","properties":{"OBJECTID":287,"Name":"Blacksnake Meadery","Address":"605 Buffalo Road","City":"Dugspur","State":"VA","Zip":24325,"Phone":"540-834-6172","Weddings":" ","PicnicArea":" ","Overnight":" ","Region":"Blue Ridge","FoodAvailable":" ","GiftShop":" ","TastingRoom":" ","GroupTour":" ","PrivateParty":" ","TastingFee":" ","Website":"http://www.blacksnakemead.com","VaWine_Website":"https://www.virginiawine.org/wineries/65","VaWine_ID":65,"GlobalID":"{E0CA0C6B-36EB-4905-AB4F-B137C3A91A9C}"},"geometry":{"type":"Point","coordinates":[-80.54139462503933,36.778256715399735]}},{"type":"Feature","properties":{"OBJECTID":288,"Name":"Blenheim Vineyards","Address":"31 Blenheim Farm","City":"Charlottesville","State":"Virginia","Zip":22902,"Phone":"434-293-5366","Weddings":" ","PicnicArea":" ","Overnight":" ","Region":"Central Virginia","FoodAvailable":" ","GiftShop":" ","TastingRoom":" ","GroupTour":" ","PrivateParty":" ","TastingFee":"Y","Website":"http://www.blenheimvineyards.com","VaWine_Website":"https://www.virginiawine.org/wineries/89","VaWine_ID":89,"GlobalID":"{5E810E8F-43D1-4C12-9018-8A10D7262F9C}"},"geometry":{"type":"Point","coordinates":[-78.49924887817515,37.931789148445475]}},{"type":"Feature","properties":{"OBJECTID":289,"Name":"Blue Bee Cider","Address":"212 W. 6th Street","City":"Richmond","State":"VA","Zip":23224,"Phone":"804-231-0280","Weddings":" ","PicnicArea":" ","Overnight":" ","Region":"Central Virginia","FoodAvailable":" ","GiftShop":" ","TastingRoom":" ","GroupTour":" ","PrivateParty":" ","TastingFee":"Y","Website":"http://www.bluebeecider.com","VaWine_Website":"https://www.virginiawine.org/wineries/1611","VaWine_ID":1611,"GlobalID":"{D8A0F311-22A3-47B3-AE3B-A641BD691FA3}"},"geometry":{"type":"Point","coordinates":[-77.44214924492232,37.526139835077394]}},{"type":"Feature","properties":{"OBJECTID":290,"Name":"Blue Ridge Vineyard","Address":"1027 Shiloh Dr.","City":"Eagle Rock","State":"VA","Zip":24085,"Phone":"(540) 798-7642","Weddings":" ","PicnicArea":" ","Overnight":" ","Region":"Shenandoah Valley","FoodAvailable":" ","GiftShop":" ","TastingRoom":" ","GroupTour":" ","PrivateParty":" ","TastingFee":"Y","Website":"http://www.blueridgevineyard.com","VaWine_Website":"https://www.virginiawine.org/wineries/105","VaWine_ID":105,"GlobalID":"{D189C115-1FE7-47B8-8D8F-12035942F816}"},"geometry":{"type":"Point","coordinates":[-79.7500639702892,37.6286576342573]}},{"type":"Feature","properties":{"OBJECTID":291,"Name":"Blue Valley Vineyard and Winery","Address":"9402 Justice Lane","City":"Delaplane","State":"VA","Zip":20144,"Phone":"(540)364-2347","Weddings":" ","PicnicArea":" ","Overnight":" ","Region":"Northern Virginia","FoodAvailable":" ","GiftShop":" ","TastingRoom":" ","GroupTour":" ","PrivateParty":" ","TastingFee":" ","Website":"http://www.BlueValleyVineyardandWinery.com","VaWine_Website":"https://www.virginiawine.org/wineries/1706","VaWine_ID":1706,"GlobalID":"{7B7D0299-7C34-42D9-9DA8-9B0C01107B26}"},"geometry":{"type":"Point","coordinates":[-77.90000053520042,38.89314222056431]}},{"type":"Feature","properties":{"OBJECTID":292,"Name":"Bluemont Vineyard","Address":"18755 Foggy Bottom Road","City":"Bluemont","State":"Virginia","Zip":20135,"Phone":"540 554 8439","Weddings":"Y","PicnicArea":"Y","Overnight":" ","Region":"Shenandoah Valley","FoodAvailable":"Y","GiftShop":"Y","TastingRoom":"Y","GroupTour":"Y","PrivateParty":" ","TastingFee":" ","Website":"http://BluemontVineyard.com","VaWine_Website":"https://www.virginiawine.org/wineries/67","VaWine_ID":67,"GlobalID":"{80FFC2FE-1E25-45D3-B8D6-2927FAE1401C}"},"geometry":{"type":"Point","coordinates":[-77.8362301728519,39.097377393308065]}},{"type":"Feature","properties":{"OBJECTID":293,"Name":"Bluestone Vineyard","Address":"4828 Spring Creek Road","City":"Bridgewater","State":"VA","Zip":22812,"Phone":"540-828-0099","Weddings":" ","PicnicArea":" ","Overnight":" ","Region":"Shenandoah Valley","FoodAvailable":" ","GiftShop":" ","TastingRoom":" ","GroupTour":" ","PrivateParty":" ","TastingFee":" ","Website":"http://www.bluestonevineyard.com","VaWine_Website":"https://www.virginiawine.org/wineries/1156","VaWine_ID":1156,"GlobalID":"{E534EB5E-8E77-4E40-9598-6BE971F43244}"},"geometry":{"type":"Point","coordinates":[-79.00949560664205,38.38752050664519]}},{"type":"Feature","properties":{"OBJECTID":294,"Name":"Bodie Vineyards","Address":"1809 May Way Drive","City":"Powhatan","State":"VA","Zip":23139,"Phone":"(804) 598-2240","Weddings":" ","PicnicArea":" ","Overnight":" ","Region":"Central Virginia","FoodAvailable":" ","GiftShop":" ","TastingRoom":" ","GroupTour":" ","PrivateParty":" ","TastingFee":"Y","Website":"http://www.bodievineyards.com","VaWine_Website":"https://www.virginiawine.org/wineries/968","VaWine_ID":968,"GlobalID":"{30BC3ED2-BD61-4000-88BC-DF700817576D}"},"geometry":{"type":"Point","coordinates":[-77.83734366102613,37.5184562775613]}},{"type":"Feature","properties":{"OBJECTID":295,"Name":"Bogati Bodega","Address":"35246 Harry Byrd Highway","City":"Round Hill","State":"VA","Zip":20141,"Phone":"540-338-1144","Weddings":" ","PicnicArea":" ","Overnight":" ","Region":"Northern Virginia","FoodAvailable":" ","GiftShop":" ","TastingRoom":" ","GroupTour":" ","PrivateParty":" ","TastingFee":"Y","Website":"http://www.bogatibodega.com","VaWine_Website":"https://www.virginiawine.org/wineries/1625","VaWine_ID":1625,"GlobalID":"{D5D7D37B-0E05-4B5A-9F18-30EDA64B78E9}"},"geometry":{"type":"Point","coordinates":[-77.78731693578119,39.12783059438405]}},{"type":"Feature","properties":{"OBJECTID":296,"Name":"Bold Rock Cider","Address":"1020 Rockfish Valley Hwy","City":"Nellysford","State":"VA","Zip":22958,"Phone":" ","Weddings":"Y","PicnicArea":"Y","Overnight":" ","Region":" ","FoodAvailable":"Y","GiftShop":"Y","TastingRoom":"Y","GroupTour":"Y","PrivateParty":"Y","TastingFee":"Y","Website":"http://www.boldrock.com/ ","VaWine_Website":"https://www.virginiawine.org/wineries/1720","VaWine_ID":1720,"GlobalID":"{45829E57-2E19-4529-90BF-D6183B03274F}"},"geometry":{"type":"Point","coordinates":[-78.90564791594961,37.88097018681211]}},{"type":"Feature","properties":{"OBJECTID":297,"Name":"Boxwood Estate Winery","Address":"2042 Burrland Rd","City":"Middleburg","State":"VA","Zip":20117,"Phone":"(540) 687-8778","Weddings":" ","PicnicArea":" ","Overnight":" ","Region":"Northern Virginia","FoodAvailable":" ","GiftShop":" ","TastingRoom":" ","GroupTour":" ","PrivateParty":" ","TastingFee":" ","Website":"http://www.boxwoodwinery.com","VaWine_Website":"https://www.virginiawine.org/wineries/111","VaWine_ID":111,"GlobalID":"{BC3CCF89-583C-4FFA-95FB-482C4D739785}"},"geometry":{"type":"Point","coordinates":[-77.74646736293258,38.95978627029981]}},{"type":"Feature","properties":{"OBJECTID":298,"Name":"Breaux Vineyards","Address":"36888 Breaux Vineyards Lane","City":"Purcellville","State":"Virginia","Zip":20132,"Phone":"(540) 668-6299","Weddings":" ","PicnicArea":" ","Overnight":" ","Region":"Northern Virginia","FoodAvailable":" ","GiftShop":" ","TastingRoom":" ","GroupTour":" ","PrivateParty":" ","TastingFee":" ","Website":"http://www.breauxvineyards.com","VaWine_Website":"https://www.virginiawine.org/wineries/35","VaWine_ID":35,"GlobalID":"{E7A47B95-6235-45D6-AB3C-549831AA0284}"},"geometry":{"type":"Point","coordinates":[-77.72649357255666,39.23179058903949]}},{"type":"Feature","properties":{"OBJECTID":299,"Name":"Brent Manor Vineyards","Address":"100 Brent Manor Lane","City":"Faber","State":"Virginia","Zip":22938,"Phone":"(434) 826 - 0722","Weddings":" ","PicnicArea":"Y","Overnight":" ","Region":"Northern Virginia","FoodAvailable":"Y","GiftShop":" ","TastingRoom":"Y","GroupTour":"Y","PrivateParty":"Y","TastingFee":"Y","Website":"http://brentmanorvineyards.com/","VaWine_Website":"https://www.virginiawine.org/wineries/1782","VaWine_ID":1782,"GlobalID":"{B93816C5-30E9-4325-A89A-5338B226898C}"},"geometry":{"type":"Point","coordinates":[-78.74574402757263,37.85440275661262]}},{"type":"Feature","properties":{"OBJECTID":300,"Name":"Bright Meadows Farm","Address":"1181 Nathalie Road","City":"Nathalie","State":"VA","Zip":24577,"Phone":"434 349 5349","Weddings":"Y","PicnicArea":"Y","Overnight":" ","Region":"Southern Virginia","FoodAvailable":" ","GiftShop":"Y","TastingRoom":"Y","GroupTour":"Y","PrivateParty":"Y","TastingFee":" ","Website":"http://www.brightmeadows.com","VaWine_Website":"https://www.virginiawine.org/wineries/66","VaWine_ID":66,"GlobalID":"{2F01CA16-061A-4B4F-A1F4-74F3529AE0F3}"},"geometry":{"type":"Point","coordinates":[-78.94944482298517,36.93291097063827]}},{"type":"Feature","properties":{"OBJECTID":301,"Name":"Brightwood Vineyard & Farm","Address":"1202 Lillards Ford Rd","City":"Brightwood","State":"VA","Zip":22715,"Phone":"540-717-2165","Weddings":" ","PicnicArea":" ","Overnight":"Y","Region":"Central Virginia","FoodAvailable":" ","GiftShop":" ","TastingRoom":" ","GroupTour":" ","PrivateParty":" ","TastingFee":" ","Website":"http://www.brightwoodvineyardandfarm.com","VaWine_Website":"https://www.virginiawine.org/wineries/1144","VaWine_ID":1144,"GlobalID":"{7C319650-38CF-42DB-A112-3EC365710AE0}"},"geometry":{"type":"Point","coordinates":[-78.18162227080572,38.386203749366466]}},{"type":"Feature","properties":{"OBJECTID":302,"Name":"Brooks Mill Winery","Address":"6221 Brooks Mill Rd.","City":"Wirtz","State":"VA","Zip":24184,"Phone":"540-721-5215","Weddings":" ","PicnicArea":" ","Overnight":" ","Region":"Blue Ridge","FoodAvailable":" ","GiftShop":"Y","TastingRoom":" ","GroupTour":" ","PrivateParty":" ","TastingFee":" ","Website":"http://www.brooksmillwine.com","VaWine_Website":"https://www.virginiawine.org/wineries/175","VaWine_ID":175,"GlobalID":"{531B9305-A942-4708-9634-DBF182432F7E}"},"geometry":{"type":"Point","coordinates":[-79.75480752635848,37.06532883760881]}},{"type":"Feature","properties":{"OBJECTID":303,"Name":"Burnley Vineyards","Address":"4500 Winery Lane","City":"Barboursville","State":"Virginia","Zip":22923,"Phone":"540-832-2828","Weddings":" ","PicnicArea":" ","Overnight":" ","Region":"Central Virginia","FoodAvailable":" ","GiftShop":" ","TastingRoom":" ","GroupTour":" ","PrivateParty":" ","TastingFee":" ","Website":"http://www.burnleywines.com","VaWine_Website":"https://www.virginiawine.org/wineries/1","VaWine_ID":1,"GlobalID":"{6C0747E3-CE02-4EFF-835F-A2E5A6F32C59}"},"geometry":{"type":"Point","coordinates":[-78.31709305595334,38.158452925799864]}},{"type":"Feature","properties":{"OBJECTID":304,"Name":"Byrd Cellars","Address":"5847 River Road West","City":"Goochland","State":"VA","Zip":23063,"Phone":"804-652-5663","Weddings":"Y","PicnicArea":"Y","Overnight":"Y","Region":"Central Virginia","FoodAvailable":" ","GiftShop":"Y","TastingRoom":"Y","GroupTour":"Y","PrivateParty":"Y","TastingFee":"Y","Website":"http://www.byrdcellars.com","VaWine_Website":"https://www.virginiawine.org/wineries/279","VaWine_ID":279,"GlobalID":"{525DBC65-FBA2-4002-93E9-E3CE0CB707AD}"},"geometry":{"type":"Point","coordinates":[-78.10190587479012,37.73398032682417]}},{"type":"Feature","properties":{"OBJECTID":305,"Name":"Cana Vineyards and Winery of Middleburg","Address":"38600 John Mosby Highway","City":"Middleburg","State":"VA","Zip":20117,"Phone":"(703) 348-2458","Weddings":" ","PicnicArea":" ","Overnight":" ","Region":"Northern Virginia","FoodAvailable":" ","GiftShop":" ","TastingRoom":" ","GroupTour":" ","PrivateParty":" ","TastingFee":"Y","Website":"http://www.canavineyards.com","VaWine_Website":"https://www.virginiawine.org/wineries/1606","VaWine_ID":1606,"GlobalID":"{DA6955D4-8DDC-4C7C-A063-937B677AF01A}"},"geometry":{"type":"Point","coordinates":[-77.66894681289021,38.97865117288085]}},{"type":"Feature","properties":{"OBJECTID":306,"Name":"Capitol Vineyards","Address":"3600 Sage Rd.","City":"Delaplane","State":"VA","Zip":20144,"Phone":"845-598-2662","Weddings":" ","PicnicArea":" ","Overnight":" ","Region":"Northern Virginia","FoodAvailable":" ","GiftShop":" ","TastingRoom":" ","GroupTour":" ","PrivateParty":" ","TastingFee":"Y","Website":"http://www.capitolvineyards.com","VaWine_Website":"https://www.virginiawine.org/wineries/1142","VaWine_ID":1142,"GlobalID":"{40059B0E-0C91-43F5-9CDB-EDE06E980D9D}"},"geometry":{"type":"Point","coordinates":[-77.97173879248395,38.89174562226633]}},{"type":"Feature","properties":{"OBJECTID":307,"Name":"Cardamon Family Vineyards","Address":"12226 Harpers Ferry Rd","City":"Purcellville","State":"VA","Zip":20132,"Phone":"540-668-9018","Weddings":"Y","PicnicArea":"Y","Overnight":"Y","Region":"Northern Virginia","FoodAvailable":"Y","GiftShop":"Y","TastingRoom":" ","GroupTour":" ","PrivateParty":"Y","TastingFee":"Y","Website":"http://www.cardamonfamilyvineyards.com","VaWine_Website":"https://www.virginiawine.org/wineries/1609","VaWine_ID":1609,"GlobalID":"{C56BF0A3-9A55-4177-8EFE-EB7EBA7A79CB}"},"geometry":{"type":"Point","coordinates":[-77.72478802566953,39.278195038340314]}},{"type":"Feature","properties":{"OBJECTID":308,"Name":"Cardinal Point Vineyard & Winery","Address":"9423 Batesville Road","City":"Afton","State":"Virginia","Zip":22920,"Phone":"540-456-8400","Weddings":" ","PicnicArea":" ","Overnight":" ","Region":"Central Virginia","FoodAvailable":" ","GiftShop":" ","TastingRoom":" ","GroupTour":" ","PrivateParty":" ","TastingFee":"Y","Website":"http://www.cardinalpointwinery.com","VaWine_Website":"https://www.virginiawine.org/wineries/24","VaWine_ID":24,"GlobalID":"{F3EA4B96-2B9C-4094-B4CD-9CACFB287F9D}"},"geometry":{"type":"Point","coordinates":[-78.81385008034536,37.98860961519539]}},{"type":"Feature","properties":{"OBJECTID":309,"Name":"Caret Cellars","Address":"495 Meadow Landing Lane","City":"Caret","State":"VA","Zip":22436,"Phone":" ","Weddings":" ","PicnicArea":" ","Overnight":" ","Region":" ","FoodAvailable":" ","GiftShop":" ","TastingRoom":" ","GroupTour":" ","PrivateParty":" ","TastingFee":" ","Website":"http://www.caretcellars.com ","VaWine_Website":"https://www.virginiawine.org/wineries/1892","VaWine_ID":1892,"GlobalID":"{106A460C-F9B0-4447-AF8F-7E8E562CCECB}"},"geometry":{"type":"Point","coordinates":[-76.9636780620689,37.97328290628684]}},{"type":"Feature","properties":{"OBJECTID":310,"Name":"Carroll Vineyards","Address":"29 SOUTH KING STREET","City":"Leesburg","State":"VA","Zip":20175,"Phone":"703-777-3322","Weddings":" ","PicnicArea":" ","Overnight":" ","Region":"Northern Virginia","FoodAvailable":"Y","GiftShop":"Y","TastingRoom":" ","GroupTour":" ","PrivateParty":" ","TastingFee":" ","Website":"http://www.carrollvineyards.com","VaWine_Website":"https://www.virginiawine.org/wineries/1602","VaWine_ID":1602,"GlobalID":"{541993DE-BB06-46C2-A926-86187F901F99}"},"geometry":{"type":"Point","coordinates":[-77.56518989305918,39.114425754611915]}},{"type":"Feature","properties":{"OBJECTID":311,"Name":"Casanel Vineyards & Winery","Address":"17956 Canby Road","City":"Leesburg","State":"Virginia","Zip":20175,"Phone":"540-751-1776","Weddings":"Y","PicnicArea":"Y","Overnight":" ","Region":"Northern Virginia","FoodAvailable":"Y","GiftShop":"Y","TastingRoom":"Y","GroupTour":"Y","PrivateParty":"Y","TastingFee":"Y","Website":"http://www.casanelvineyards.com","VaWine_Website":"https://www.virginiawine.org/wineries/168","VaWine_ID":168,"GlobalID":"{5F3F346C-17BC-453E-B9B2-F3BD130CB94B}"},"geometry":{"type":"Point","coordinates":[-77.628290305221,39.11798749846545]}},{"type":"Feature","properties":{"OBJECTID":312,"Name":"Castle Glen Estates Winery","Address":"18185 Narrow Path Trail","City":"Doswell","State":"VA","Zip":23047,"Phone":"804-837-0703","Weddings":" ","PicnicArea":" ","Overnight":" ","Region":" ","FoodAvailable":" ","GiftShop":" ","TastingRoom":" ","GroupTour":" ","PrivateParty":" ","TastingFee":" ","Website":"http://www.castleglenwine.com","VaWine_Website":"https://www.virginiawine.org/wineries/1982","VaWine_ID":1982,"GlobalID":"{7B218861-45F5-4915-835E-7D6E1CD5BF09}"},"geometry":{"type":"Point","coordinates":[-77.53369100347165,37.905627711957095]}},{"type":"Feature","properties":{"OBJECTID":313,"Name":"Castle Gruen Vineyards and Winery","Address":"1272 Meander Run Road","City":"Locust Dale","State":"Virginia","Zip":22948,"Phone":"540-229-2498","Weddings":" ","PicnicArea":" ","Overnight":" ","Region":"Central Virginia","FoodAvailable":" ","GiftShop":" ","TastingRoom":" ","GroupTour":" ","PrivateParty":" ","TastingFee":" ","Website":"http://www.CASTLEGRUENWINERY.com","VaWine_Website":"https://www.virginiawine.org/wineries/93","VaWine_ID":93,"GlobalID":"{D7007578-E24F-4392-BB19-AAB3456FA2AC}"},"geometry":{"type":"Point","coordinates":[-78.12272557140062,38.366527631230014]}},{"type":"Feature","properties":{"OBJECTID":314,"Name":"Castle Hill Cider","Address":"6065 Turkey Sag Rd","City":"Keswick","State":"VA","Zip":22947,"Phone":"434-296-0047","Weddings":"Y","PicnicArea":"Y","Overnight":" ","Region":"Central Virginia","FoodAvailable":"Y","GiftShop":"Y","TastingRoom":"Y","GroupTour":"Y","PrivateParty":"Y","TastingFee":"Y","Website":"http://www.castlehillcider.com","VaWine_Website":"https://www.virginiawine.org/wineries/1146","VaWine_ID":1146,"GlobalID":"{2BD4C440-468D-4E41-82EF-8591C906A002}"},"geometry":{"type":"Point","coordinates":[-78.2908971565672,38.08886933368495]}},{"type":"Feature","properties":{"OBJECTID":315,"Name":"Catoctin Creek Winery","Address":"14426 Richards Run Lane","City":"Purcellville","State":"VA","Zip":20132,"Phone":" ","Weddings":" ","PicnicArea":" ","Overnight":" ","Region":"Northern Virginia","FoodAvailable":" ","GiftShop":" ","TastingRoom":" ","GroupTour":" ","PrivateParty":" ","TastingFee":" ","Website":"http://www.catoctincreekwinery.com","VaWine_Website":"https://www.virginiawine.org/wineries/1152","VaWine_ID":1152,"GlobalID":"{73BE754E-B80F-450C-A493-BF44D6834665}"},"geometry":{"type":"Point","coordinates":[-77.6725783601907,39.21652167211354]}},{"type":"Feature","properties":{"OBJECTID":316,"Name":"Cave Ridge Vineyard","Address":"1476 Conicville Rd","City":"Mt. Jackson","State":"VA","Zip":22842,"Phone":"540-477-2585","Weddings":"Y","PicnicArea":"Y","Overnight":"Y","Region":"Shenandoah Valley","FoodAvailable":" ","GiftShop":"Y","TastingRoom":"Y","GroupTour":"Y","PrivateParty":"Y","TastingFee":"Y","Website":"http://www.caveridge.com","VaWine_Website":"https://www.virginiawine.org/wineries/48","VaWine_ID":48,"GlobalID":"{A4908B3A-1F11-4E8F-92F6-1E7AB7E4364A}"},"geometry":{"type":"Point","coordinates":[-78.66909164542261,38.81456861981165]}},{"type":"Feature","properties":{"OBJECTID":317,"Name":"Cedar Creek Winery","Address":"7384 Zepp Road","City":"Star Tannery","State":"VA","Zip":22654,"Phone":"540/436-8394","Weddings":" ","PicnicArea":"Y","Overnight":" ","Region":"Shenandoah Valley","FoodAvailable":"Y","GiftShop":" ","TastingRoom":" ","GroupTour":" ","PrivateParty":"Y","TastingFee":"Y","Website":"http://www.cedarcreekvineyard.com","VaWine_Website":"https://www.virginiawine.org/wineries/1493","VaWine_ID":1493,"GlobalID":"{29DF8049-23CF-4917-AB4D-3B3AA7BC3B14}"},"geometry":{"type":"Point","coordinates":[-78.48738215346049,39.01336991038434]}},{"type":"Feature","properties":{"OBJECTID":318,"Name":"Chateau MerrillAnne","Address":"16234 Marquis Rd.","City":"Orange","State":"Virginia","Zip":22960,"Phone":"540-656-6177","Weddings":" ","PicnicArea":" ","Overnight":" ","Region":"Central Virginia","FoodAvailable":" ","GiftShop":" ","TastingRoom":" ","GroupTour":" ","PrivateParty":" ","TastingFee":"Y","Website":"http://www.ChateauMerrillAnne.com","VaWine_Website":"https://www.virginiawine.org/wineries/1696","VaWine_ID":1696,"GlobalID":"{4FA6F144-E73B-4B50-AFB5-8BBC091F1AF7}"},"geometry":{"type":"Point","coordinates":[-77.98324822749878,38.185552672176556]}},{"type":"Feature","properties":{"OBJECTID":319,"Name":"Chateau Morrisette","Address":"287 Winery Road SW","City":"Floyd","State":"VA","Zip":24091,"Phone":"540-593-2865","Weddings":" ","PicnicArea":" ","Overnight":" ","Region":"Blue Ridge","FoodAvailable":" ","GiftShop":" ","TastingRoom":" ","GroupTour":" ","PrivateParty":" ","TastingFee":" ","Website":"http://www.thedogs.com","VaWine_Website":"https://www.virginiawine.org/wineries/62","VaWine_ID":62,"GlobalID":"{8BCCE56A-BCD9-4968-AC8C-F8422148599A}"},"geometry":{"type":"Point","coordinates":[-80.39340697543065,36.79444858580575]}},{"type":"Feature","properties":{"OBJECTID":320,"Name":"Chateau OBrien at Northpoint","Address":"3238 Railstop Road","City":"Markham","State":"Virginia","Zip":22643,"Phone":"540-364-6441","Weddings":" ","PicnicArea":" ","Overnight":" ","Region":"Northern Virginia","FoodAvailable":" ","GiftShop":" ","TastingRoom":" ","GroupTour":" ","PrivateParty":" ","TastingFee":"Y","Website":"http://www.chateauobrien.com","VaWine_Website":"https://www.virginiawine.org/wineries/16","VaWine_ID":16,"GlobalID":"{192C6E7C-33FC-4148-8A5E-788E48FEEE0D}"},"geometry":{"type":"Point","coordinates":[-77.99697683204215,38.903578065547]}},{"type":"Feature","properties":{"OBJECTID":321,"Name":"Chatham Vineyards on Church Creek","Address":"9232 Chatham Road","City":"Machipongo","State":"VA","Zip":23405,"Phone":"757-678-5588","Weddings":" ","PicnicArea":"Y","Overnight":" ","Region":"Eastern Shore","FoodAvailable":"Y","GiftShop":"Y","TastingRoom":"Y","GroupTour":"Y","PrivateParty":"Y","TastingFee":"Y","Website":"http://www.chathamvineyards.com","VaWine_Website":"https://www.virginiawine.org/wineries/44","VaWine_ID":44,"GlobalID":"{6DD3E5B5-34E8-40A4-9610-6148D39F681B}"},"geometry":{"type":"Point","coordinates":[-75.93207073573427,37.45398917393364]}},{"type":"Feature","properties":{"OBJECTID":322,"Name":"Chester Gap Cellars","Address":"4615 Remount Rd","City":"Front Royal","State":"Virginia","Zip":22630,"Phone":"540-636-8086","Weddings":" ","PicnicArea":" ","Overnight":" ","Region":"Northern Virginia","FoodAvailable":" ","GiftShop":" ","TastingRoom":" ","GroupTour":" ","PrivateParty":" ","TastingFee":"Y","Website":"http://www.chestergapcellars.com","VaWine_Website":"https://www.virginiawine.org/wineries/82","VaWine_ID":82,"GlobalID":"{45DF8633-DD4E-4357-BAA5-5165F9D3A7EB}"},"geometry":{"type":"Point","coordinates":[-78.12809452911297,38.86158781728919]}},{"type":"Feature","properties":{"OBJECTID":323,"Name":"Chestnut Oak Vineyard","Address":"5050 Stony Point Road","City":"Barboursville","State":"VA","Zip":22923,"Phone":"434-964-9104","Weddings":" ","PicnicArea":" ","Overnight":" ","Region":"Central Virginia","FoodAvailable":" ","GiftShop":" ","TastingRoom":" ","GroupTour":" ","PrivateParty":" ","TastingFee":" ","Website":"http://www.chestnutoakvineyard.com/","VaWine_Website":"https://www.virginiawine.org/wineries/1498","VaWine_ID":1498,"GlobalID":"{57776209-80DE-45EE-8164-F6867C305028}"},"geometry":{"type":"Point","coordinates":[-78.32815266326692,38.14171739405479]}},{"type":"Feature","properties":{"OBJECTID":324,"Name":"Chrysalis Vineyards at The Ag District","Address":"39025 John Mosby Highway","City":"Middleburg","State":"Virginia","Zip":20117,"Phone":"(540) 687 8222","Weddings":" ","PicnicArea":" ","Overnight":" ","Region":"Northern Virginia","FoodAvailable":" ","GiftShop":" ","TastingRoom":" ","GroupTour":" ","PrivateParty":" ","TastingFee":"Y","Website":"http://www.ChrysalisWine.com","VaWine_Website":"https://www.virginiawine.org/wineries/6","VaWine_ID":6,"GlobalID":"{15663D5C-7969-4898-BBEF-65CF29251A6D}"},"geometry":{"type":"Point","coordinates":[-77.67250614125355,38.958010160937484]}},{"type":"Feature","properties":{"OBJECTID":325,"Name":"Cobbler Mountain Cellars","Address":"5909 Long Fall Lane","City":"Delaplane","State":"VA","Zip":20144,"Phone":"540-364-2802","Weddings":" ","PicnicArea":" ","Overnight":" ","Region":"Northern Virginia","FoodAvailable":" ","GiftShop":" ","TastingRoom":" ","GroupTour":" ","PrivateParty":" ","TastingFee":"Y","Website":"http://www.cobblermountain.com","VaWine_Website":"https://www.virginiawine.org/wineries/1151","VaWine_ID":1151,"GlobalID":"{8B09DEB9-6530-45F7-9208-C777F7CA4AE4}"},"geometry":{"type":"Point","coordinates":[-77.94557819342955,38.847117043690126]}},{"type":"Feature","properties":{"OBJECTID":326,"Name":"Cooper Vineyards","Address":"13372 Shannon Hill Rd","City":"Louisa","State":"Virginia","Zip":23093,"Phone":"540-894-5474","Weddings":" ","PicnicArea":" ","Overnight":" ","Region":"Central Virginia","FoodAvailable":" ","GiftShop":" ","TastingRoom":" ","GroupTour":" ","PrivateParty":" ","TastingFee":" ","Website":"http://www.coopervineyards.com","VaWine_Website":"https://www.virginiawine.org/wineries/7","VaWine_ID":7,"GlobalID":"{CED780E3-298B-433D-8156-354A2F4A63EE}"},"geometry":{"type":"Point","coordinates":[-77.9241720158765,37.9622985522635]}},{"type":"Feature","properties":{"OBJECTID":327,"Name":"Corcoran Vineyards & Cider","Address":"14635 Corkys Farm Lane","City":"Waterford","State":"VA","Zip":20197,"Phone":"540-882-9073","Weddings":" ","PicnicArea":" ","Overnight":" ","Region":"Northern Virginia","FoodAvailable":" ","GiftShop":" ","TastingRoom":" ","GroupTour":" ","PrivateParty":" ","TastingFee":"Y","Website":"http://www.corcoranvineyards.com","VaWine_Website":"https://www.virginiawine.org/wineries/8","VaWine_ID":8,"GlobalID":"{D52D4264-A238-474F-B017-557177BEFC43}"},"geometry":{"type":"Point","coordinates":[-77.6537410941755,39.21120254799626]}},{"type":"Feature","properties":{"OBJECTID":328,"Name":"Creek's Edge Winery","Address":"41255 Annas Lane","City":"Lovettsville","State":" ","Zip":20180,"Phone":"540-822-3825","Weddings":" ","PicnicArea":" ","Overnight":" ","Region":"Northern Virginia","FoodAvailable":" ","GiftShop":" ","TastingRoom":" ","GroupTour":" ","PrivateParty":" ","TastingFee":" ","Website":"http://www.creeksedgewinery.com/","VaWine_Website":"https://www.virginiawine.org/wineries/1613","VaWine_ID":1613,"GlobalID":"{E865D4AC-94D7-4508-BAB2-52457DA27D0C}"},"geometry":{"type":"Point","coordinates":[-77.57250514390992,39.25588515648626]}},{"type":"Feature","properties":{"OBJECTID":329,"Name":"CrossKeys Vineyards","Address":"6011 East Timber Ridge Road","City":"Mt. Crawford","State":"VA","Zip":22841,"Phone":"540-234-0505","Weddings":" ","PicnicArea":" ","Overnight":" ","Region":"Shenandoah Valley","FoodAvailable":" ","GiftShop":" ","TastingRoom":" ","GroupTour":" ","PrivateParty":" ","TastingFee":" ","Website":"http://www.crosskeysvineyards.com","VaWine_Website":"https://www.virginiawine.org/wineries/69","VaWine_ID":69,"GlobalID":"{8161D282-F088-4CB5-BD97-885AAC0BE65D}"},"geometry":{"type":"Point","coordinates":[-78.85076868485247,38.322743739165716]}},{"type":"Feature","properties":{"OBJECTID":330,"Name":"Crushed Cellars","Address":"37938 Charles Town Pike","City":"Purcellville","State":"VA","Zip":20132,"Phone":"1.571.374.WINE (9463)","Weddings":" ","PicnicArea":" ","Overnight":" ","Region":"Northern Virginia","FoodAvailable":" ","GiftShop":" ","TastingRoom":" ","GroupTour":" ","PrivateParty":" ","TastingFee":"Y","Website":"http://www.CrushedCellars.com","VaWine_Website":"https://www.virginiawine.org/wineries/1148","VaWine_ID":1148,"GlobalID":"{38CCF784-35E0-4784-913B-20698A3AD4E3}"},"geometry":{"type":"Point","coordinates":[-77.69052100548018,39.18835855470272]}},{"type":"Feature","properties":{"OBJECTID":331,"Name":"Davis Valley Winery","Address":"1167 Davis Valley Road","City":"Rural Retreat","State":"VA","Zip":24368,"Phone":"276-686-8855","Weddings":" ","PicnicArea":" ","Overnight":" ","Region":"Blue Ridge","FoodAvailable":" ","GiftShop":" ","TastingRoom":" ","GroupTour":" ","PrivateParty":" ","TastingFee":" ","Website":"http://dvwinery.com","VaWine_Website":"https://www.virginiawine.org/wineries/25","VaWine_ID":25,"GlobalID":"{AF92BF1E-2524-4F7B-B688-5AC4676A636D}"},"geometry":{"type":"Point","coordinates":[-81.3603065167687,36.90285864235673]}},{"type":"Feature","properties":{"OBJECTID":332,"Name":"Delaplane Cellars","Address":"2187 Winchester Road","City":"Delaplane","State":"Virginia","Zip":"20144-1734","Phone":"540-592-7210","Weddings":" ","PicnicArea":" ","Overnight":" ","Region":"Northern Virginia","FoodAvailable":" ","GiftShop":" ","TastingRoom":" ","GroupTour":" ","PrivateParty":" ","TastingFee":"Y","Website":"http://www.delaplanecellars.com","VaWine_Website":"https://www.virginiawine.org/wineries/146","VaWine_ID":146,"GlobalID":"{C1CACC08-49E7-4E00-B096-F8FD250BD375}"},"geometry":{"type":"Point","coordinates":[-77.93502046468527,38.95017016243711]}},{"type":"Feature","properties":{"OBJECTID":333,"Name":"DelFosse Vineyards and Winery","Address":"500 DelFosse Winery Lane","City":"Faber","State":"VA","Zip":22938,"Phone":"434-263-6100","Weddings":" ","PicnicArea":" ","Overnight":" ","Region":"Central Virginia","FoodAvailable":" ","GiftShop":" ","TastingRoom":" ","GroupTour":" ","PrivateParty":" ","TastingFee":"Y","Website":"http://www.delfossewine.com","VaWine_Website":"https://www.virginiawine.org/wineries/20","VaWine_ID":20,"GlobalID":"{4D04A4C6-3BD6-4A74-BFCF-936A066DF9DE}"},"geometry":{"type":"Point","coordinates":[-78.76628302815219,37.895375910631664]}},{"type":"Feature","properties":{"OBJECTID":334,"Name":"Democracy Vineyards","Address":"585 Mountain Cove Road","City":"Lovingston","State":"VA","Zip":22949,"Phone":"434-263-8463","Weddings":" ","PicnicArea":" ","Overnight":" ","Region":"Central Virginia","FoodAvailable":" ","GiftShop":" ","TastingRoom":" ","GroupTour":" ","PrivateParty":" ","TastingFee":"Y","Website":"http://www.democracyvineyards.com","VaWine_Website":"https://www.virginiawine.org/wineries/252","VaWine_ID":252,"GlobalID":"{8855382C-CC30-4561-A9DC-A6878297778D}"},"geometry":{"type":"Point","coordinates":[-78.88233956747558,37.76504761382095]}},{"type":"Feature","properties":{"OBJECTID":335,"Name":"Desert Rose Ranch & Winery","Address":"13726 Hume Rd.","City":"Hume","State":"VA","Zip":22639,"Phone":"540-635-3200","Weddings":" ","PicnicArea":" ","Overnight":" ","Region":"Northern Virginia","FoodAvailable":" ","GiftShop":" ","TastingRoom":"Y","GroupTour":"Y","PrivateParty":" ","TastingFee":"Y","Website":"http://www.desertrosewinery.com","VaWine_Website":"https://www.virginiawine.org/wineries/1157","VaWine_ID":1157,"GlobalID":"{CF062962-53C6-4385-A1AB-F6A436FA1F6F}"},"geometry":{"type":"Point","coordinates":[-78.08160219296222,38.84200013518096]}},{"type":"Feature","properties":{"OBJECTID":336,"Name":"DeVault Family Vineyards","Address":"247 Station Lane","City":"Concord","State":"VA","Zip":24538,"Phone":"434-993-0722","Weddings":" ","PicnicArea":" ","Overnight":" ","Region":"Central Virginia","FoodAvailable":" ","GiftShop":" ","TastingRoom":" ","GroupTour":" ","PrivateParty":" ","TastingFee":" ","Website":"http://www.devaultvineyards.com","VaWine_Website":"https://www.virginiawine.org/wineries/934","VaWine_ID":934,"GlobalID":"{ECAC96EE-0487-472A-9DB6-7E1622F9AC70}"},"geometry":{"type":"Point","coordinates":[-78.97123776169683,37.34637488647851]}},{"type":"Feature","properties":{"OBJECTID":337,"Name":"Doukénie Winery","Address":"14727 Mountain Road","City":"Purcellville","State":"Virginia","Zip":20132,"Phone":"540-668-6464","Weddings":" ","PicnicArea":" ","Overnight":" ","Region":"Northern Virginia","FoodAvailable":" ","GiftShop":" ","TastingRoom":" ","GroupTour":" ","PrivateParty":" ","TastingFee":"Y","Website":"http://www.DoukenieWinery.com","VaWine_Website":"https://www.virginiawine.org/wineries/99","VaWine_ID":99,"GlobalID":"{8D710A22-BDED-43FB-93D0-F9224F70110E}"},"geometry":{"type":"Point","coordinates":[-77.70938891267336,39.21148384502757]}},{"type":"Feature","properties":{"OBJECTID":338,"Name":"Dry Mill Vineyards Winery","Address":"18195 Dry Mill Road","City":"Leesburg","State":"Virginia","Zip":20175,"Phone":"703 737-3930","Weddings":" ","PicnicArea":"Y","Overnight":" ","Region":"Northern Virginia","FoodAvailable":"Y","GiftShop":" ","TastingRoom":" ","GroupTour":" ","PrivateParty":"Y","TastingFee":" ","Website":"http://www.drymillwine.com","VaWine_Website":"https://www.virginiawine.org/wineries/169","VaWine_ID":169,"GlobalID":"{B1B9A7A2-6CBB-404F-A16E-23C0A4383B8E}"},"geometry":{"type":"Point","coordinates":[-77.60247423146077,39.113133548063175]}},{"type":"Feature","properties":{"OBJECTID":339,"Name":"DuCard Vineyards","Address":"40 Gibson Hollow Lane","City":"Etlan","State":"VA","Zip":22719,"Phone":"540-923-4206","Weddings":" ","PicnicArea":" ","Overnight":" ","Region":"Central Virginia","FoodAvailable":" ","GiftShop":" ","TastingRoom":" ","GroupTour":" ","PrivateParty":" ","TastingFee":"Y","Website":"http://www.ducardvineyards.com","VaWine_Website":"https://www.virginiawine.org/wineries/283","VaWine_ID":283,"GlobalID":"{B96D3DB1-D1CB-4DD3-9067-B7E1E2266D8B}"},"geometry":{"type":"Point","coordinates":[-78.30473856437618,38.5127511110064]}},{"type":"Feature","properties":{"OBJECTID":340,"Name":"Early Mountain Vineyards","Address":"6109 Wolftown-Hood Road","City":"Madison","State":"Virginia","Zip":22727,"Phone":"540-948-9005","Weddings":" ","PicnicArea":" ","Overnight":" ","Region":"Central Virginia","FoodAvailable":" ","GiftShop":" ","TastingRoom":" ","GroupTour":" ","PrivateParty":" ","TastingFee":" ","Website":"http://earlymountain.com","VaWine_Website":"https://www.virginiawine.org/wineries/72","VaWine_ID":72,"GlobalID":"{1AE00584-4D94-4832-B0A3-D8022FF4F887}"},"geometry":{"type":"Point","coordinates":[-78.30801486024954,38.350378521085474]}},{"type":"Feature","properties":{"OBJECTID":341,"Name":"Eden Try Estate Winery","Address":"6818 River Road","City":"Fredericksburg","State":"VA","Zip":22407,"Phone":"540-786-0037","Weddings":" ","PicnicArea":" ","Overnight":" ","Region":"Northern Virginia","FoodAvailable":" ","GiftShop":" ","TastingRoom":" ","GroupTour":" ","PrivateParty":" ","TastingFee":" ","Website":"http://www.EdenTryEstate.com","VaWine_Website":"https://www.virginiawine.org/wineries/1728","VaWine_ID":1728,"GlobalID":"{04E0904B-CAE6-4A66-BAC0-9289A229410A}"},"geometry":{"type":"Point","coordinates":[-77.57284296724457,38.32909705700035]}},{"type":"Feature","properties":{"OBJECTID":342,"Name":"Elk Island Winery","Address":"5759 River Road West","City":"Goochland","State":"VA","Zip":23063,"Phone":"804-627-3929","Weddings":" ","PicnicArea":" ","Overnight":" ","Region":"Central Virginia","FoodAvailable":" ","GiftShop":" ","TastingRoom":" ","GroupTour":" ","PrivateParty":" ","TastingFee":" ","Website":"http://elkislandwinery.com","VaWine_Website":"https://www.virginiawine.org/wineries/1601","VaWine_ID":1601,"GlobalID":"{B1152242-440B-4848-B1F4-2069014D06C6}"},"geometry":{"type":"Point","coordinates":[-78.09433179064015,37.73008790292154]}},{"type":"Feature","properties":{"OBJECTID":343,"Name":"Fabbioli Cellars","Address":"15669 Limestone School Road","City":"Leesburg","State":"Virginia","Zip":20176,"Phone":"703-771-1197","Weddings":"Y","PicnicArea":"Y","Overnight":" ","Region":"Northern Virginia","FoodAvailable":"Y","GiftShop":"Y","TastingRoom":"Y","GroupTour":"Y","PrivateParty":"Y","TastingFee":"Y","Website":"http://www.fabbioliwines.com","VaWine_Website":"https://www.virginiawine.org/wineries/88","VaWine_ID":88,"GlobalID":"{AD775804-CB90-4B65-9968-1CBE0E91D68F}"},"geometry":{"type":"Point","coordinates":[-77.5188607404119,39.18180418892612]}},{"type":"Feature","properties":{"OBJECTID":344,"Name":"Fincastle Vineyard & Winery","Address":"203 Maple Ridge Lane","City":"Fincastle","State":"Virginia","Zip":24090,"Phone":"(540)591-9000","Weddings":" ","PicnicArea":" ","Overnight":" ","Region":"Shenandoah Valley","FoodAvailable":" ","GiftShop":" ","TastingRoom":" ","GroupTour":" ","PrivateParty":" ","TastingFee":" ","Website":"http://fincastlewine.com","VaWine_Website":"https://www.virginiawine.org/wineries/37","VaWine_ID":37,"GlobalID":"{BFBBB74D-7FB6-41B2-BCCE-6422D6F3DB23}"},"geometry":{"type":"Point","coordinates":[-79.82014837641697,37.44800648113155]}},{"type":"Feature","properties":{"OBJECTID":345,"Name":"Firefly Hill Vineyards","Address":"4289 Northfork Rd","City":"Elliston","State":"VA","Zip":24087,"Phone":"540-588-0231","Weddings":" ","PicnicArea":" ","Overnight":" ","Region":"Blue Ridge","FoodAvailable":" ","GiftShop":" ","TastingRoom":" ","GroupTour":" ","PrivateParty":" ","TastingFee":"Y","Website":"http://www.fireflyhill.com","VaWine_Website":"https://www.virginiawine.org/wineries/819","VaWine_ID":819,"GlobalID":"{2285CCA6-103B-4C97-9D88-0FB5B1050BCB}"},"geometry":{"type":"Point","coordinates":[-80.26869141644889,37.234285695929024]}},{"type":"Feature","properties":{"OBJECTID":346,"Name":"First Colony Winery","Address":"1650 Harris Creek Road","City":"Charlottesville","State":"Virginia","Zip":22902,"Phone":"434-979-7105","Weddings":" ","PicnicArea":" ","Overnight":" ","Region":"Central Virginia","FoodAvailable":" ","GiftShop":" ","TastingRoom":" ","GroupTour":" ","PrivateParty":" ","TastingFee":"Y","Website":"http://www.firstcolonywinery.com","VaWine_Website":"https://www.virginiawine.org/wineries/19","VaWine_ID":19,"GlobalID":"{0D5B7812-7C19-40A1-8651-EBACD21F1066}"},"geometry":{"type":"Point","coordinates":[-78.55686995313677,37.89284648060374]}},{"type":"Feature","properties":{"OBJECTID":347,"Name":"Flying Fox Vineyard","Address":"27 Chapel Hollow Road","City":"Afton","State":"Virginia","Zip":22920,"Phone":"434-361-1692","Weddings":" ","PicnicArea":" ","Overnight":" ","Region":"Central Virginia","FoodAvailable":" ","GiftShop":" ","TastingRoom":" ","GroupTour":" ","PrivateParty":" ","TastingFee":" ","Website":"http://www.FlyingFoxVineyard.com","VaWine_Website":"https://www.virginiawine.org/wineries/79","VaWine_ID":79,"GlobalID":"{45E371A6-CA60-4E91-8FD5-CBB4EACC3DA5}"},"geometry":{"type":"Point","coordinates":[-78.8394788572722,37.94107969050522]}},{"type":"Feature","properties":{"OBJECTID":348,"Name":"Foggy Ridge Cider","Address":"1328 Pineview Road","City":"Dugspur","State":"Virginia","Zip":24325,"Phone":"276 398-2337","Weddings":"Y","PicnicArea":"Y","Overnight":" ","Region":"Blue Ridge","FoodAvailable":"Y","GiftShop":"Y","TastingRoom":"Y","GroupTour":"Y","PrivateParty":"Y","TastingFee":"Y","Website":"http://www.foggyridgecider.com","VaWine_Website":"https://www.virginiawine.org/wineries/46","VaWine_ID":46,"GlobalID":"{8B9ACE3C-85FF-4831-8780-5546F3969CB5}"},"geometry":{"type":"Point","coordinates":[-80.52828957143304,36.76693406227621]}},{"type":"Feature","properties":{"OBJECTID":349,"Name":"Fox Meadow Winery","Address":"3310 Freezeland Road","City":"Linden","State":"Virginia","Zip":22642,"Phone":"540-636-6777","Weddings":" ","PicnicArea":" ","Overnight":" ","Region":"Northern Virginia","FoodAvailable":"Y","GiftShop":" ","TastingRoom":" ","GroupTour":" ","PrivateParty":" ","TastingFee":"Y","Website":"http://www.foxmeadowwinery.com","VaWine_Website":"https://www.virginiawine.org/wineries/56","VaWine_ID":56,"GlobalID":"{9A42D1D4-E38A-46C0-AF71-2CA999E9EC2F}"},"geometry":{"type":"Point","coordinates":[-78.04624367417445,38.93609242745985]}},{"type":"Feature","properties":{"OBJECTID":350,"Name":"Gabriele Rausse Winery","Address":"3247 Carters Mountain Road","City":"Charlottesville","State":"VA","Zip":22902,"Phone":"(434) 981-1677","Weddings":" ","PicnicArea":" ","Overnight":" ","Region":"Central Virginia","FoodAvailable":" ","GiftShop":" ","TastingRoom":" ","GroupTour":" ","PrivateParty":" ","TastingFee":" ","Website":"http://www.gabrieleraussewinery.com","VaWine_Website":"https://www.virginiawine.org/wineries/120","VaWine_ID":120,"GlobalID":"{864C7591-49CB-48FD-B02C-ABDE229E7BCE}"},"geometry":{"type":"Point","coordinates":[-78.4772802148334,37.94095453416339]}},{"type":"Feature","properties":{"OBJECTID":351,"Name":"Gadino Cellars","Address":"92 Schoolhouse Road","City":"Washington","State":"Virginia","Zip":22747,"Phone":"540-987-9292","Weddings":" ","PicnicArea":" ","Overnight":" ","Region":"Northern Virginia","FoodAvailable":" ","GiftShop":" ","TastingRoom":" ","GroupTour":" ","PrivateParty":" ","TastingFee":"Y","Website":"http://www.gadinocellars.com","VaWine_Website":"https://www.virginiawine.org/wineries/50","VaWine_ID":50,"GlobalID":"{2CED887A-9185-48F3-8837-DC493DE7D02C}"},"geometry":{"type":"Point","coordinates":[-78.17341103185173,38.6861373599068]}},{"type":"Feature","properties":{"OBJECTID":352,"Name":"Gauthier Vineyard","Address":"5000 Farmer's Drive","City":"Barhamsville","State":"VA","Zip":23011,"Phone":"703-622-1107","Weddings":"Y","PicnicArea":"Y","Overnight":" ","Region":"Hampton Roads","FoodAvailable":"Y","GiftShop":"Y","TastingRoom":"Y","GroupTour":"Y","PrivateParty":"Y","TastingFee":"Y","Website":"http://www.gauthiervineyard.com","VaWine_Website":"https://www.virginiawine.org/wineries/1701","VaWine_ID":1701,"GlobalID":"{D12BAB19-5603-4818-B714-4E8DE9D4ADFF}"},"geometry":{"type":"Point","coordinates":[-76.83280192224997,37.46884160571237]}},{"type":"Feature","properties":{"OBJECTID":353,"Name":"General's Ridge Vineyard","Address":"1618 Weldons Drive","City":"Hague","State":"Virginia","Zip":22469,"Phone":"804-472-3172  Alt. 804-223-2GRV (2478)","Weddings":"Y","PicnicArea":" ","Overnight":"Y","Region":"Chesapeake Bay","FoodAvailable":"Y","GiftShop":" ","TastingRoom":"Y","GroupTour":"Y","PrivateParty":"Y","TastingFee":" ","Website":"http://www.generalsridgevineyard.com","VaWine_Website":"https://www.virginiawine.org/wineries/823","VaWine_ID":823,"GlobalID":"{795FD77C-9151-4760-8A11-D87731AEB77C}"},"geometry":{"type":"Point","coordinates":[-76.66242123202709,38.02759862135915]}},{"type":"Feature","properties":{"OBJECTID":354,"Name":"Glass House Winery","Address":"5898 Free Union Rd","City":"Free Union","State":"Virginia","Zip":22940,"Phone":"434-975-0094 Tasting Room / 434-964-2190 B&B","Weddings":" ","PicnicArea":" ","Overnight":" ","Region":"Central Virginia","FoodAvailable":" ","GiftShop":" ","TastingRoom":" ","GroupTour":" ","PrivateParty":" ","TastingFee":" ","Website":"http://www.glasshousewinery.com","VaWine_Website":"https://www.virginiawine.org/wineries/824","VaWine_ID":824,"GlobalID":"{3A7D9635-935B-44D2-BA4E-E7D1028A97AD}"},"geometry":{"type":"Point","coordinates":[-78.57967286556057,38.19912609948725]}},{"type":"Feature","properties":{"OBJECTID":355,"Name":"Glen Manor Vineyards","Address":"2244 Browntown Road","City":"Front Royal","State":"Virginia","Zip":22630,"Phone":"540 635-6324","Weddings":"Y","PicnicArea":"Y","Overnight":"Y","Region":"Shenandoah Valley","FoodAvailable":"Y","GiftShop":" ","TastingRoom":"Y","GroupTour":"Y","PrivateParty":" ","TastingFee":"Y","Website":"http://www.glenmanorvineyards.com","VaWine_Website":"https://www.virginiawine.org/wineries/109","VaWine_ID":109,"GlobalID":"{79D06F40-AB1C-4EB1-A638-4EDD28DC1559}"},"geometry":{"type":"Point","coordinates":[-78.2290020592251,38.840127047668254]}},{"type":"Feature","properties":{"OBJECTID":356,"Name":"Good Luck Cellars","Address":"1025 Good Luck Road","City":"Kilmarnock","State":"VA","Zip":22482,"Phone":"804-435-1416","Weddings":" ","PicnicArea":" ","Overnight":" ","Region":"Chesapeake Bay","FoodAvailable":" ","GiftShop":" ","TastingRoom":" ","GroupTour":" ","PrivateParty":" ","TastingFee":" ","Website":"http://www.goodluckcellars.com","VaWine_Website":"https://www.virginiawine.org/wineries/1153","VaWine_ID":1153,"GlobalID":"{945B10DC-5112-4D1C-B8A1-1323335579E0}"},"geometry":{"type":"Point","coordinates":[-76.38088893821852,37.738237120577466]}},{"type":"Feature","properties":{"OBJECTID":357,"Name":"Grace Estate Winery","Address":"5273 Mount Juliet Farm","City":"Crozet","State":"Virginia","Zip":22932,"Phone":"434-823-1486","Weddings":" ","PicnicArea":" ","Overnight":" ","Region":"Central Virginia","FoodAvailable":" ","GiftShop":" ","TastingRoom":" ","GroupTour":" ","PrivateParty":" ","TastingFee":" ","Website":"http://www.graceestatewinery.com","VaWine_Website":"https://www.virginiawine.org/wineries/1603","VaWine_ID":1603,"GlobalID":"{6D40E456-3BBD-47BC-B90F-F4AD7766102E}"},"geometry":{"type":"Point","coordinates":[-78.68425460006212,38.11779601613034]}},{"type":"Feature","properties":{"OBJECTID":358,"Name":"Granite Heights Winery","Address":"8141 Opal Rd.","City":"Warrenton","State":"VA","Zip":20186,"Phone":"540-349-5185","Weddings":" ","PicnicArea":" ","Overnight":" ","Region":"Northern Virginia","FoodAvailable":" ","GiftShop":" ","TastingRoom":" ","GroupTour":" ","PrivateParty":" ","TastingFee":" ","Website":"http://www.graniteheightswinery.com","VaWine_Website":"https://www.virginiawine.org/wineries/1145","VaWine_ID":1145,"GlobalID":"{1FFE3CE9-8E0C-40C5-B695-95629816B2DA}"},"geometry":{"type":"Point","coordinates":[-77.84366479350604,38.63790550770062]}},{"type":"Feature","properties":{"OBJECTID":359,"Name":"Gray Ghost Vineyards","Address":"14706 Lee Highway","City":"Amissville","State":"Virginia","Zip":20106,"Phone":"540-937-4869","Weddings":" ","PicnicArea":" ","Overnight":" ","Region":"Northern Virginia","FoodAvailable":" ","GiftShop":" ","TastingRoom":" ","GroupTour":" ","PrivateParty":" ","TastingFee":" ","Website":"http://www.grayghostvineyards.com","VaWine_Website":"https://www.virginiawine.org/wineries/101","VaWine_ID":101,"GlobalID":"{DBF60A6A-1D39-40E4-8CE9-07030E5BDEFA}"},"geometry":{"type":"Point","coordinates":[-78.00349683363295,38.67767361295491]}},{"type":"Feature","properties":{"OBJECTID":360,"Name":"Grayhaven Winery","Address":"4675 East Grey Fox Circle","City":"Gum Spring","State":"VA","Zip":23065,"Phone":"804 556-3917","Weddings":" ","PicnicArea":" ","Overnight":" ","Region":"Central Virginia","FoodAvailable":" ","GiftShop":" ","TastingRoom":" ","GroupTour":" ","PrivateParty":" ","TastingFee":" ","Website":"http://www.grayhavenwinery.com","VaWine_Website":"https://www.virginiawine.org/wineries/115","VaWine_ID":115,"GlobalID":"{0329A588-DBE9-436C-9875-76A2EECA1546}"},"geometry":{"type":"Point","coordinates":[-77.90729833087087,37.806033750219356]}},{"type":"Feature","properties":{"OBJECTID":361,"Name":"Greenhill Winery & Vineyards","Address":"23595 Winery Lane","City":"Middleburg","State":"VA","Zip":20117,"Phone":"540-687-6968","Weddings":" ","PicnicArea":" ","Overnight":" ","Region":"Northern Virginia","FoodAvailable":" ","GiftShop":" ","TastingRoom":" ","GroupTour":" ","PrivateParty":" ","TastingFee":" ","Website":"http://greenhillvineyards.com/","VaWine_Website":"https://www.virginiawine.org/wineries/1694","VaWine_ID":1694,"GlobalID":"{9CEE38B6-A4BC-4B18-B0F0-6636B7ED361B}"},"geometry":{"type":"Point","coordinates":[-77.7052090254906,38.96600735594794]}},{"type":"Feature","properties":{"OBJECTID":362,"Name":"Greenwood Vineyards","Address":"9050 Mountain Road","City":"Vernon Hill","State":"VA","Zip":24597,"Phone":"(434) 579-2836","Weddings":" ","PicnicArea":" ","Overnight":" ","Region":"Southern Virginia","FoodAvailable":" ","GiftShop":" ","TastingRoom":" ","GroupTour":" ","PrivateParty":" ","TastingFee":"Y","Website":"http://www.sovawinetrail.com","VaWine_Website":"https://www.virginiawine.org/wineries/775","VaWine_ID":775,"GlobalID":"{762DE906-9454-44C3-BDF6-8DF3C3CA364F}"},"geometry":{"type":"Point","coordinates":[-79.07650721507882,36.75609268695405]}},{"type":"Feature","properties":{"OBJECTID":363,"Name":"Grey Horse Vineyards","Address":"12285 Elk Run Church Rd","City":"Midland","State":"VA","Zip":22728,"Phone":"(540) 788-4620","Weddings":" ","PicnicArea":" ","Overnight":" ","Region":"Northern Virginia","FoodAvailable":" ","GiftShop":" ","TastingRoom":" ","GroupTour":" ","PrivateParty":" ","TastingFee":"Y","Website":"http://www.greyhorsevineyards.com","VaWine_Website":"https://www.virginiawine.org/wineries/1721","VaWine_ID":1721,"GlobalID":"{B29FCD1A-FF06-4E62-9E74-2B1C11E101CC}"},"geometry":{"type":"Point","coordinates":[-77.66121713713947,38.530854897144906]}},{"type":"Feature","properties":{"OBJECTID":364,"Name":"Guilford Ridge Vineyards","Address":"328 Running Pine Road","City":"Stanley","State":"VA","Zip":22851,"Phone":"540-778-3853","Weddings":" ","PicnicArea":"Y","Overnight":" ","Region":"Shenandoah Valley","FoodAvailable":"Y","GiftShop":"Y","TastingRoom":"Y","GroupTour":"Y","PrivateParty":" ","TastingFee":"Y","Website":" ","VaWine_Website":"https://www.virginiawine.org/wineries/1499","VaWine_ID":1499,"GlobalID":"{7D693E39-3A8F-4E5A-83B1-19F638526E09}"},"geometry":{"type":"Point","coordinates":[-78.49842077636023,38.60251807731887]}},{"type":"Feature","properties":{"OBJECTID":365,"Name":"Hamlet Vineyards","Address":"405 Riverside Drive","City":"Bassett","State":"VA","Zip":24055,"Phone":"276-629-2121","Weddings":" ","PicnicArea":" ","Overnight":" ","Region":"Southern Virginia","FoodAvailable":" ","GiftShop":" ","TastingRoom":" ","GroupTour":" ","PrivateParty":" ","TastingFee":" ","Website":"http://www.hamletvineyards.com","VaWine_Website":"https://www.virginiawine.org/wineries/1619","VaWine_ID":1619,"GlobalID":"{BC5F450D-98C9-4A0A-B921-32D482263957}"},"geometry":{"type":"Point","coordinates":[-79.96289277636583,36.73509787469735]}},{"type":"Feature","properties":{"OBJECTID":366,"Name":"Hampton Roads Winery","Address":"6074 New Design Road","City":"Elberon","State":"VA","Zip":23846,"Phone":"(757) 899-0203","Weddings":" ","PicnicArea":" ","Overnight":" ","Region":"Hampton Roads","FoodAvailable":" ","GiftShop":" ","TastingRoom":" ","GroupTour":" ","PrivateParty":" ","TastingFee":"Y","Website":"http://www.hamptonroadswinery.com","VaWine_Website":"https://www.virginiawine.org/wineries/1862","VaWine_ID":1862,"GlobalID":"{808A1AC7-A5E1-446A-9A97-1B56C3A0F4A6}"},"geometry":{"type":"Point","coordinates":[-76.87512610301452,37.07155093973419]}},{"type":"Feature","properties":{"OBJECTID":367,"Name":"Hartwood Winery","Address":"345 Hartwood Road","City":"Fredericksburg","State":"Virginia","Zip":22406,"Phone":"540-752-4893","Weddings":" ","PicnicArea":" ","Overnight":" ","Region":"Northern Virginia","FoodAvailable":" ","GiftShop":" ","TastingRoom":" ","GroupTour":" ","PrivateParty":" ","TastingFee":" ","Website":"http://www.hartwoodwinery.com","VaWine_Website":"https://www.virginiawine.org/wineries/40","VaWine_ID":40,"GlobalID":"{95EBB687-A98D-4FC0-8CB7-811CBD5032F0}"},"geometry":{"type":"Point","coordinates":[-77.57464087081,38.421555422616706]}},{"type":"Feature","properties":{"OBJECTID":368,"Name":"Hickory Hill Vineyards Winery","Address":"1722 Hickory Cove Lane","City":"Moneta","State":"VA","Zip":24121,"Phone":"540-296-1393","Weddings":" ","PicnicArea":" ","Overnight":" ","Region":"Central Virginia","FoodAvailable":" ","GiftShop":" ","TastingRoom":" ","GroupTour":" ","PrivateParty":" ","TastingFee":"Y","Website":"http://www.SMLwine.com","VaWine_Website":"https://www.virginiawine.org/wineries/17","VaWine_ID":17,"GlobalID":"{43793BD3-34D3-4AA3-9424-BCB4F19ED033}"},"geometry":{"type":"Point","coordinates":[-79.63000152420958,37.12949790424176]}},{"type":"Feature","properties":{"OBJECTID":369,"Name":"Hidden Brook Winery","Address":"43301 Sprinks Ferry Rd.","City":"Leesburg","State":"VA","Zip":20176,"Phone":"(703) 737-3935","Weddings":"Y","PicnicArea":"Y","Overnight":" ","Region":"Northern Virginia","FoodAvailable":"Y","GiftShop":"Y","TastingRoom":"Y","GroupTour":"Y","PrivateParty":"Y","TastingFee":" ","Website":"http://www.hiddenbrookwinery.com","VaWine_Website":"https://www.virginiawine.org/wineries/118","VaWine_ID":118,"GlobalID":"{A3D82AE2-82A0-43B5-AACD-0786D102302F}"},"geometry":{"type":"Point","coordinates":[-77.49981667499422,39.20764860712821]}},{"type":"Feature","properties":{"OBJECTID":370,"Name":"Hiddencroft Vineyards","Address":"12202 Axline Road","City":"Lovettsville","State":"Virginia","Zip":20180,"Phone":"(540) 535-5367","Weddings":"Y","PicnicArea":"Y","Overnight":" ","Region":"Northern Virginia","FoodAvailable":"Y","GiftShop":"Y","TastingRoom":"Y","GroupTour":"Y","PrivateParty":"Y","TastingFee":"Y","Website":"http://www.hiddencroftvineyards.com","VaWine_Website":"https://www.virginiawine.org/wineries/110","VaWine_ID":110,"GlobalID":"{5082CF22-08E2-4A33-9D86-F4F5692D1222}"},"geometry":{"type":"Point","coordinates":[-77.67439091305455,39.27360659927382]}},{"type":"Feature","properties":{"OBJECTID":371,"Name":"Hill Top Berry Farm and Winery","Address":"2800 Berry Hill Road","City":"Nellysford","State":"Virginia","Zip":22958,"Phone":"434-361-1266","Weddings":" ","PicnicArea":" ","Overnight":" ","Region":"Central Virginia","FoodAvailable":" ","GiftShop":" ","TastingRoom":" ","GroupTour":" ","PrivateParty":" ","TastingFee":"Y","Website":"http://www.hilltopberrywine.com","VaWine_Website":"https://www.virginiawine.org/wineries/68","VaWine_ID":68,"GlobalID":"{FF114F3C-7BD2-4B60-8DBB-A617CDD77FA1}"},"geometry":{"type":"Point","coordinates":[-78.84620890535723,37.90080645991098]}},{"type":"Feature","properties":{"OBJECTID":372,"Name":"Hillsborough Vineyards","Address":"36716 Charles Town Pike","City":"Purcellville","State":"VA","Zip":20132,"Phone":"(540) 668-6216","Weddings":" ","PicnicArea":" ","Overnight":" ","Region":"Northern Virginia","FoodAvailable":" ","GiftShop":" ","TastingRoom":" ","GroupTour":" ","PrivateParty":" ","TastingFee":" ","Website":"http://www.hillsboroughwine.com","VaWine_Website":"https://www.virginiawine.org/wineries/122","VaWine_ID":122,"GlobalID":"{C924E546-6462-4F9B-9CED-270A2CF8ADF1}"},"geometry":{"type":"Point","coordinates":[-77.73380972906014,39.206168479417684]}},{"type":"Feature","properties":{"OBJECTID":373,"Name":"Honah Lee Vineyard","Address":"13443 Honah Lee Farm Drive","City":"Gordonsville","State":"Virginia","Zip":22942,"Phone":"540-406-1313","Weddings":" ","PicnicArea":" ","Overnight":" ","Region":"Central Virginia","FoodAvailable":" ","GiftShop":" ","TastingRoom":" ","GroupTour":" ","PrivateParty":" ","TastingFee":"Y","Website":"http://www.honahleevineyard.com","VaWine_Website":"https://www.virginiawine.org/wineries/1608","VaWine_ID":1608,"GlobalID":"{F79DDB9E-4896-4AD6-A353-91299A9E8B19}"},"geometry":{"type":"Point","coordinates":[-78.14693659151267,38.18878432175524]}},{"type":"Feature","properties":{"OBJECTID":374,"Name":"Horton Vineyards","Address":"6399 Spotswood Trail","City":"Gordonsville","State":"VA","Zip":22942,"Phone":"800-829-4633","Weddings":" ","PicnicArea":" ","Overnight":" ","Region":"Central Virginia","FoodAvailable":" ","GiftShop":" ","TastingRoom":" ","GroupTour":" ","PrivateParty":" ","TastingFee":" ","Website":"http://www.hvwine.com","VaWine_Website":"https://www.virginiawine.org/wineries/104","VaWine_ID":104,"GlobalID":"{734BC6A8-6DF7-43F3-9F9E-A71994D94B35}"},"geometry":{"type":"Point","coordinates":[-78.26080715219238,38.166848881047535]}},{"type":"Feature","properties":{"OBJECTID":375,"Name":"Hunters Run Winery","Address":"40325 Charlestown Pike","City":"Hamilton","State":"VA","Zip":20158,"Phone":"703-926-4183","Weddings":" ","PicnicArea":" ","Overnight":" ","Region":"Northern Virginia","FoodAvailable":" ","GiftShop":" ","TastingRoom":" ","GroupTour":" ","PrivateParty":" ","TastingFee":"Y","Website":"http://www.huntersrunwinebarn.com/","VaWine_Website":"https://www.virginiawine.org/wineries/1154","VaWine_ID":1154,"GlobalID":"{4BB72CA4-E4FE-4307-BC23-DEA4AAF87809}"},"geometry":{"type":"Point","coordinates":[-77.6254764726088,39.15006329722099]}},{"type":"Feature","properties":{"OBJECTID":376,"Name":"Ingleside Vineyards","Address":"5872 Leedstown Road","City":"Oak Grove","State":"Virginia","Zip":22443,"Phone":"804-224-8687","Weddings":"Y","PicnicArea":"Y","Overnight":" ","Region":"Chesapeake Bay","FoodAvailable":"Y","GiftShop":"Y","TastingRoom":"Y","GroupTour":"Y","PrivateParty":"Y","TastingFee":"Y","Website":"http://inglesidevineyards.com/","VaWine_Website":"https://www.virginiawine.org/wineries/43","VaWine_ID":43,"GlobalID":"{92C45C33-8142-4579-94DC-5D51B728190C}"},"geometry":{"type":"Point","coordinates":[-77.00315037211358,38.15109261408932]}},{"type":"Feature","properties":{"OBJECTID":377,"Name":"Jacey Vineyards","Address":"619 Train Lane","City":"Heathsville","State":"VA","Zip":22473,"Phone":"(804)-580-4053","Weddings":" ","PicnicArea":" ","Overnight":" ","Region":"Chesapeake Bay","FoodAvailable":"Y","GiftShop":"Y","TastingRoom":"Y","GroupTour":"Y","PrivateParty":"Y","TastingFee":" ","Website":"http://www.jaceyvineyards.com","VaWine_Website":"https://www.virginiawine.org/wineries/1614","VaWine_ID":1614,"GlobalID":"{502EF116-0D41-4738-980E-F78B346E43CD}"},"geometry":{"type":"Point","coordinates":[-76.33639249807267,37.80024037617279]}},{"type":"Feature","properties":{"OBJECTID":378,"Name":"James Charles Winery & Vineyard","Address":"4063 Middle Rd","City":"Winchester","State":"VA","Zip":22602,"Phone":"(540) 931-4386","Weddings":" ","PicnicArea":" ","Overnight":" ","Region":"Shenandoah Valley","FoodAvailable":" ","GiftShop":" ","TastingRoom":" ","GroupTour":" ","PrivateParty":" ","TastingFee":"Y","Website":"http://jamescharleswine.com","VaWine_Website":"https://www.virginiawine.org/wineries/1812","VaWine_ID":1812,"GlobalID":"{E43111CB-D727-40F7-BA44-F67D5D7FBAF9}"},"geometry":{"type":"Point","coordinates":[-78.23076355520944,39.12645661171636]}},{"type":"Feature","properties":{"OBJECTID":379,"Name":"James River Cellars","Address":"11008 Washington Hwy.","City":"Glen Allen","State":"Virginia","Zip":23059,"Phone":"804-550-7516","Weddings":" ","PicnicArea":" ","Overnight":" ","Region":"Central Virginia","FoodAvailable":" ","GiftShop":" ","TastingRoom":" ","GroupTour":" ","PrivateParty":" ","TastingFee":" ","Website":"http://www.JamesRiverCellars.com","VaWine_Website":"https://www.virginiawine.org/wineries/53","VaWine_ID":53,"GlobalID":"{3AC3EE44-3892-445F-ADD6-2662DCE6A6B8}"},"geometry":{"type":"Point","coordinates":[-77.46138883428783,37.70155246015821]}},{"type":"Feature","properties":{"OBJECTID":380,"Name":"JBR Vineyards & Winery","Address":"8205 Little River Dam Road","City":"Radford","State":"VA","Zip":24141,"Phone":"540-250-7291","Weddings":" ","PicnicArea":" ","Overnight":" ","Region":"Blue Ridge","FoodAvailable":" ","GiftShop":" ","TastingRoom":" ","GroupTour":" ","PrivateParty":" ","TastingFee":"Y","Website":"http://www.facebook.com/jbrwine","VaWine_Website":"https://www.virginiawine.org/wineries/1882","VaWine_ID":1882,"GlobalID":"{F45AF567-614C-4504-812A-C6412733DA8D}"},"geometry":{"type":"Point","coordinates":[-80.57327996244588,37.07005514697819]}},{"type":"Feature","properties":{"OBJECTID":381,"Name":"Jefferson Vineyards","Address":"1353 Thomas Jefferson Parkway","City":"Charlottesville","State":"VA","Zip":22902,"Phone":"434-977-3042","Weddings":" ","PicnicArea":" ","Overnight":" ","Region":"Central Virginia","FoodAvailable":" ","GiftShop":" ","TastingRoom":" ","GroupTour":" ","PrivateParty":" ","TastingFee":" ","Website":"http://www.jeffersonvineyards.com","VaWine_Website":"https://www.virginiawine.org/wineries/2","VaWine_ID":2,"GlobalID":"{555DC853-CA34-47E9-8F97-B1DB4F0B80AA}"},"geometry":{"type":"Point","coordinates":[-78.4436460180703,37.99005114809951]}},{"type":"Feature","properties":{"OBJECTID":382,"Name":"Jump Mountain Vineyard","Address":"1493 Walkers Creek Rd","City":"Rockbridge Baths","State":"VA","Zip":24473,"Phone":"540-348-6730","Weddings":" ","PicnicArea":" ","Overnight":" ","Region":"Shenandoah Valley","FoodAvailable":" ","GiftShop":" ","TastingRoom":" ","GroupTour":" ","PrivateParty":" ","TastingFee":"Y","Website":"http://www.jumpwines.com","VaWine_Website":"https://www.virginiawine.org/wineries/1618","VaWine_ID":1618,"GlobalID":"{27E41ECC-547C-4986-93C9-27ECBF0E0992}"},"geometry":{"type":"Point","coordinates":[-79.38510595074503,37.934549704488]}},{"type":"Feature","properties":{"OBJECTID":383,"Name":"Keswick Vineyards","Address":"1575 Keswick Winery Drive","City":"Keswick","State":"VA","Zip":22947,"Phone":"(434) 244-3341","Weddings":" ","PicnicArea":" ","Overnight":" ","Region":"Central Virginia","FoodAvailable":" ","GiftShop":" ","TastingRoom":" ","GroupTour":" ","PrivateParty":" ","TastingFee":"Y","Website":"http://www.keswickvineyards.com","VaWine_Website":"https://www.virginiawine.org/wineries/21","VaWine_ID":21,"GlobalID":"{3F12BED4-9E96-4C94-81D1-C9351F34DA1D}"},"geometry":{"type":"Point","coordinates":[-78.28930259443017,38.074490716406956]}},{"type":"Feature","properties":{"OBJECTID":384,"Name":"Kilaurwen Winery, LLC","Address":"1543 Evergreen Church Road","City":"Stanardsville","State":"VA","Zip":22973,"Phone":"434 985 2535","Weddings":" ","PicnicArea":" ","Overnight":" ","Region":"Central Virginia","FoodAvailable":" ","GiftShop":" ","TastingRoom":" ","GroupTour":" ","PrivateParty":" ","TastingFee":"Y","Website":"http://KilaurwenWinery.com","VaWine_Website":"https://www.virginiawine.org/wineries/1137","VaWine_ID":1137,"GlobalID":"{8BFF3C9F-E90D-4495-9E11-4BAAC0A1B9A3}"},"geometry":{"type":"Point","coordinates":[-78.52824830177208,38.27129671753719]}},{"type":"Feature","properties":{"OBJECTID":385,"Name":"King Family Vineyards","Address":"6550 Roseland Farm","City":"Crozet","State":"Virginia","Zip":22932,"Phone":"434-823-7800","Weddings":" ","PicnicArea":" ","Overnight":" ","Region":"Central Virginia","FoodAvailable":" ","GiftShop":" ","TastingRoom":" ","GroupTour":" ","PrivateParty":" ","TastingFee":" ","Website":"http://www.kingfamilyvineyards.com","VaWine_Website":"https://www.virginiawine.org/wineries/18","VaWine_ID":18,"GlobalID":"{9AF108AC-60FE-435B-9D53-BFA6997865A8}"},"geometry":{"type":"Point","coordinates":[-78.7298779245388,38.06285843895812]}},{"type":"Feature","properties":{"OBJECTID":386,"Name":"Knights Gambit Vineyard","Address":"2218 Lake Albemarle Rd","City":"Charlottesville","State":"VA","Zip":22901,"Phone":" ","Weddings":" ","PicnicArea":" ","Overnight":" ","Region":"Central Virginia","FoodAvailable":" ","GiftShop":" ","TastingRoom":" ","GroupTour":" ","PrivateParty":" ","TastingFee":"Y","Website":"http://www.knightsgambitvineyard.com/","VaWine_Website":"https://www.virginiawine.org/wineries/1497","VaWine_ID":1497,"GlobalID":"{9545777B-8D1E-4414-88D9-2F8C7BAAA88A}"},"geometry":{"type":"Point","coordinates":[-78.62134351743036,38.093295131289494]}},{"type":"Feature","properties":{"OBJECTID":387,"Name":"Lake Anna Winery","Address":"5621 Courthouse Rd","City":"Spotsylvania","State":"VA","Zip":22551,"Phone":"540-895-5085","Weddings":" ","PicnicArea":" ","Overnight":" ","Region":"Northern Virginia","FoodAvailable":" ","GiftShop":" ","TastingRoom":" ","GroupTour":" ","PrivateParty":" ","TastingFee":" ","Website":"http://www.lawinery.com","VaWine_Website":"https://www.virginiawine.org/wineries/57","VaWine_ID":57,"GlobalID":"{32DD5D5D-D705-464A-B580-862957AC7420}"},"geometry":{"type":"Point","coordinates":[-77.76616911363591,38.11216417287421]}},{"type":"Feature","properties":{"OBJECTID":388,"Name":"Lazy Days Winery","Address":"1351 N Amherst Hwy","City":"Amherst","State":"VA","Zip":24521,"Phone":"434-381-6088","Weddings":" ","PicnicArea":" ","Overnight":" ","Region":"Central Virginia","FoodAvailable":" ","GiftShop":" ","TastingRoom":" ","GroupTour":" ","PrivateParty":" ","TastingFee":"Y","Website":"http://www.lazydayswinery.com","VaWine_Website":"https://www.virginiawine.org/wineries/935","VaWine_ID":935,"GlobalID":"{8478C963-587C-4024-A398-AEB373BAAAAB}"},"geometry":{"type":"Point","coordinates":[-79.02047656760935,37.618784815137275]}},{"type":"Feature","properties":{"OBJECTID":389,"Name":"Leo Grande Vineyards & Winery","Address":"1343 Wingfield Drive","City":"Goode","State":"Virginia","Zip":24556,"Phone":"(540) 586-4066","Weddings":" ","PicnicArea":" ","Overnight":" ","Region":"Central Virginia","FoodAvailable":" ","GiftShop":" ","TastingRoom":" ","GroupTour":" ","PrivateParty":" ","TastingFee":"Y","Website":"http://www.leograndewinery.com","VaWine_Website":"https://www.virginiawine.org/wineries/124","VaWine_ID":124,"GlobalID":"{670029EA-F794-466A-BF07-6B60F510E523}"},"geometry":{"type":"Point","coordinates":[-79.41113909178895,37.34417064243307]}},{"type":"Feature","properties":{"OBJECTID":390,"Name":"Lexington Valley Vineyard","Address":"80 Norton Way","City":"Rockbridge Baths","State":"Virginia","Zip":24473,"Phone":"540-462-2974","Weddings":" ","PicnicArea":" ","Overnight":" ","Region":"Shenandoah Valley","FoodAvailable":" ","GiftShop":" ","TastingRoom":" ","GroupTour":" ","PrivateParty":" ","TastingFee":"Y","Website":"http://lexingtonvalleyvineyard.com","VaWine_Website":"https://www.virginiawine.org/wineries/14","VaWine_ID":14,"GlobalID":"{7BCA05F8-8ED8-466D-B87C-9A6774CC6220}"},"geometry":{"type":"Point","coordinates":[-79.41742874291556,37.865493955492006]}},{"type":"Feature","properties":{"OBJECTID":391,"Name":"Linden Vineyards","Address":"3708 Harrels Corner Road","City":"Linden","State":"VA","Zip":"22642 ","Phone":" ","Weddings":"Y","PicnicArea":"Y","Overnight":" ","Region":" ","FoodAvailable":"Y","GiftShop":"Y","TastingRoom":"Y","GroupTour":"Y","PrivateParty":" ","TastingFee":"Y","Website":"http://www.lindenvineyards.com ","VaWine_Website":"https://www.virginiawine.org/wineries/125","VaWine_ID":125,"GlobalID":"{CCA72AA6-704F-4ADC-8422-F809D7D41ACE}"},"geometry":{"type":"Point","coordinates":[-78.07163708574026,38.880733102205035]}},{"type":"Feature","properties":{"OBJECTID":392,"Name":"Little Washington Winery","Address":"72 Christmas Tree Lane","City":"Washington","State":"VA","Zip":22747,"Phone":"540-987-8330","Weddings":"Y","PicnicArea":"Y","Overnight":" ","Region":"Northern Virginia","FoodAvailable":" ","GiftShop":" ","TastingRoom":" ","GroupTour":" ","PrivateParty":"Y","TastingFee":"Y","Website":"http://www.littlewashingtonwinery.com","VaWine_Website":"https://www.virginiawine.org/wineries/1432","VaWine_ID":1432,"GlobalID":"{63A3A336-AB93-4C8B-9E84-F464A635509D}"},"geometry":{"type":"Point","coordinates":[-78.18760678283763,38.69373263740173]}},{"type":"Feature","properties":{"OBJECTID":393,"Name":"Loving Cup Vineyard & Winery","Address":"3340 Sutherland Road","City":"North Garden","State":"VA","Zip":22959,"Phone":"434.984.0774","Weddings":"Y","PicnicArea":"Y","Overnight":" ","Region":"Central Virginia","FoodAvailable":" ","GiftShop":" ","TastingRoom":" ","GroupTour":" ","PrivateParty":"Y","TastingFee":"Y","Website":"http://www.lovingcupwine.com","VaWine_Website":"https://www.virginiawine.org/wineries/1704","VaWine_ID":1704,"GlobalID":"{1B77649C-9D3B-4A26-B69C-09FF8F9DE866}"},"geometry":{"type":"Point","coordinates":[-78.68637861958139,37.95157397220627]}},{"type":"Feature","properties":{"OBJECTID":394,"Name":"Lovingston Winery","Address":"885 Freshwater Cove Lane","City":"Lovingston","State":"VA","Zip":22949,"Phone":"434-263-8467","Weddings":" ","PicnicArea":" ","Overnight":" ","Region":"Central Virginia","FoodAvailable":" ","GiftShop":" ","TastingRoom":" ","GroupTour":" ","PrivateParty":" ","TastingFee":"Y","Website":"http://www.lovingstonwinery.com","VaWine_Website":"https://www.virginiawine.org/wineries/61","VaWine_ID":61,"GlobalID":"{BED10EF4-D8E6-42E6-92CF-B067C21CBE0C}"},"geometry":{"type":"Point","coordinates":[-78.91347153322987,37.72844449495757]}},{"type":"Feature","properties":{"OBJECTID":395,"Name":"Maggie Malick Wine Caves","Address":"12138 Harpers Ferry Rd","City":"Purcellville","State":"VA","Zip":20132,"Phone":"540-905-2921","Weddings":" ","PicnicArea":" ","Overnight":" ","Region":"Northern Virginia","FoodAvailable":" ","GiftShop":" ","TastingRoom":" ","GroupTour":" ","PrivateParty":" ","TastingFee":" ","Website":"http://www.maggiemalickwinecaves.com","VaWine_Website":"https://www.virginiawine.org/wineries/1610","VaWine_ID":1610,"GlobalID":"{77F854F0-D846-4BD6-B336-8A1FA78EC463}"},"geometry":{"type":"Point","coordinates":[-77.72177459265147,39.278547241292785]}},{"type":"Feature","properties":{"OBJECTID":396,"Name":"Magnolia Vineyards & Winery","Address":"200 Viewtown Rd","City":"Amissville","State":"VA","Zip":20106,"Phone":"703-785-8180","Weddings":" ","PicnicArea":" ","Overnight":" ","Region":"Northern Virginia","FoodAvailable":" ","GiftShop":" ","TastingRoom":" ","GroupTour":" ","PrivateParty":" ","TastingFee":"Y","Website":"http://www.magnoliavineyards.com/","VaWine_Website":"https://www.virginiawine.org/wineries/850","VaWine_ID":850,"GlobalID":"{9CDEE9F8-6664-45BA-8175-0EE7BF401FBB}"},"geometry":{"type":"Point","coordinates":[-78.0320594073328,38.64516894114441]}},{"type":"Feature","properties":{"OBJECTID":397,"Name":"Maidstone Meadery","Address":"22367 Maddens Tavern Road","City":"Stevensburg","State":"Virginia","Zip":22741,"Phone":"703-303-2090","Weddings":"Y","PicnicArea":"Y","Overnight":" ","Region":" ","FoodAvailable":" ","GiftShop":"Y","TastingRoom":"Y","GroupTour":"Y","PrivateParty":"Y","TastingFee":"Y","Website":"http://www.maidstonemeadery.com","VaWine_Website":"https://www.virginiawine.org/wineries/1718","VaWine_ID":1718,"GlobalID":"{C9E74B41-E10C-4A79-86A0-43C86B903FC4}"},"geometry":{"type":"Point","coordinates":[-77.84450254692445,38.44517335909455]}},{"type":"Feature","properties":{"OBJECTID":398,"Name":"Mattaponi Winery","Address":"7530 Morris Road","City":"Spotsylvania","State":"Virginia","Zip":22551,"Phone":"540-582-2897","Weddings":" ","PicnicArea":" ","Overnight":" ","Region":"Northern Virginia","FoodAvailable":" ","GiftShop":" ","TastingRoom":" ","GroupTour":" ","PrivateParty":" ","TastingFee":"Y","Website":"http://www.mattaponiwinery.com/","VaWine_Website":"https://www.virginiawine.org/wineries/141","VaWine_ID":141,"GlobalID":"{89952504-A37C-4119-8DB5-0E41CDCC5379}"},"geometry":{"type":"Point","coordinates":[-77.59354043284553,38.14417508368124]}},{"type":"Feature","properties":{"OBJECTID":399,"Name":"Mediterranean Cellars","Address":"8295 Falcon Glen Road","City":"Warrenton","State":"VA","Zip":20186,"Phone":"540-428-1984","Weddings":" ","PicnicArea":"Y","Overnight":" ","Region":"Northern Virginia","FoodAvailable":"Y","GiftShop":"Y","TastingRoom":"Y","GroupTour":"Y","PrivateParty":" ","TastingFee":" ","Website":"http://www.mediterraneancellars.com","VaWine_Website":"https://www.virginiawine.org/wineries/83","VaWine_ID":83,"GlobalID":"{7E32E7DC-3549-4302-BDD8-68BECEB2C4E0}"},"geometry":{"type":"Point","coordinates":[-77.8531800654161,38.75729455408173]}},{"type":"Feature","properties":{"OBJECTID":400,"Name":"Meriwether Springs Vineyard","Address":"1040 Owensville Road","City":"Ivy","State":"VA","Zip":22945,"Phone":"(434) 270-4299","Weddings":" ","PicnicArea":" ","Overnight":" ","Region":"Central Virginia","FoodAvailable":" ","GiftShop":" ","TastingRoom":" ","GroupTour":" ","PrivateParty":" ","TastingFee":"Y","Website":"http://meriwethersprings.com/","VaWine_Website":"https://www.virginiawine.org/wineries/1691","VaWine_ID":1691,"GlobalID":"{49C18F30-09E6-4BF1-8283-7EEA46CBC595}"},"geometry":{"type":"Point","coordinates":[-78.59652805718082,38.06596209413638]}},{"type":"Feature","properties":{"OBJECTID":401,"Name":"Mermaid Winery","Address":"330 W. 22nd Street","City":"Norfolk","State":"VA","Zip":23517,"Phone":"757.233.4155","Weddings":" ","PicnicArea":" ","Overnight":" ","Region":"Hampton Roads","FoodAvailable":" ","GiftShop":" ","TastingRoom":" ","GroupTour":" ","PrivateParty":"Y","TastingFee":"Y","Website":"http://www.mermaidwinery.com","VaWine_Website":"https://www.virginiawine.org/wineries/1733","VaWine_ID":1733,"GlobalID":"{999272CA-7458-457A-988A-95C29F575E85}"},"geometry":{"type":"Point","coordinates":[-76.28925803999674,36.869611994382474]}},{"type":"Feature","properties":{"OBJECTID":402,"Name":"Michael Shaps Wineworks","Address":"1781 Harris Creek Way","City":"Charlottesville","State":"VA","Zip":22902,"Phone":"(434)296-3438","Weddings":" ","PicnicArea":" ","Overnight":" ","Region":"Central Virginia","FoodAvailable":" ","GiftShop":" ","TastingRoom":" ","GroupTour":" ","PrivateParty":" ","TastingFee":"Y","Website":"http://www.michaelshapswines.com","VaWine_Website":"https://www.virginiawine.org/wineries/136","VaWine_ID":136,"GlobalID":"{6C876C4D-2E9A-4CBA-9710-195DE0C21048}"},"geometry":{"type":"Point","coordinates":[-78.55630354127636,37.888225683119636]}},{"type":"Feature","properties":{"OBJECTID":403,"Name":"Miller Winery","Address":"23 S. Royal Avenue","City":"Front Royal","State":"VA","Zip":22630,"Phone":"540-692-1411","Weddings":" ","PicnicArea":" ","Overnight":" ","Region":"Shenandoah Valley","FoodAvailable":" ","GiftShop":" ","TastingRoom":" ","GroupTour":" ","PrivateParty":" ","TastingFee":"Y","Website":"http://www.millerwinery.com/","VaWine_Website":"https://www.virginiawine.org/wineries/1714","VaWine_ID":1714,"GlobalID":"{687EAC20-6D90-4FB7-BF2E-727F9D2BB083}"},"geometry":{"type":"Point","coordinates":[-78.19371608513802,38.91739800136049]}},{"type":"Feature","properties":{"OBJECTID":404,"Name":"Miracle Valley Vineyard","Address":"3661 Double J Lane","City":"Delaplane","State":"VA","Zip":20144,"Phone":"540 364 0228","Weddings":" ","PicnicArea":" ","Overnight":" ","Region":"Northern Virginia","FoodAvailable":" ","GiftShop":" ","TastingRoom":" ","GroupTour":" ","PrivateParty":" ","TastingFee":"Y","Website":"http://www.miraclevalleyvineyard.com","VaWine_Website":"https://www.virginiawine.org/wineries/84","VaWine_ID":84,"GlobalID":"{0890D006-3216-4EBE-A31C-30A1C5191633}"},"geometry":{"type":"Point","coordinates":[-77.9242888531718,38.883750944893485]}},{"type":"Feature","properties":{"OBJECTID":405,"Name":"Misty Mountain Meadworks","Address":"1531 Pack Horse Rd","City":"Winchester","State":"VA","Zip":22603,"Phone":"540-888-4420","Weddings":" ","PicnicArea":" ","Overnight":" ","Region":"Shenandoah Valley","FoodAvailable":" ","GiftShop":" ","TastingRoom":" ","GroupTour":" ","PrivateParty":" ","TastingFee":" ","Website":"http://www.mistymountainmead.com","VaWine_Website":"https://www.virginiawine.org/wineries/142","VaWine_ID":142,"GlobalID":"{014490DD-75D6-474A-889E-94252F65B166}"},"geometry":{"type":"Point","coordinates":[-78.24536612882306,39.40040878878438]}},{"type":"Feature","properties":{"OBJECTID":406,"Name":"Molon Lave Vineyards","Address":"10075 Lees Mill Road","City":"Warrenton","State":"Virginia","Zip":20186,"Phone":"540-439-5460","Weddings":" ","PicnicArea":" ","Overnight":" ","Region":"Northern Virginia","FoodAvailable":" ","GiftShop":" ","TastingRoom":" ","GroupTour":" ","PrivateParty":" ","TastingFee":"Y","Website":"http://www.molonlavevineyards.com/","VaWine_Website":"https://www.virginiawine.org/wineries/284","VaWine_ID":284,"GlobalID":"{31FBD970-AD5B-44A2-A6E2-CC0BE5B12505}"},"geometry":{"type":"Point","coordinates":[-77.82301338951058,38.61923814740283]}},{"type":"Feature","properties":{"OBJECTID":407,"Name":"Monroe Bay Vineyard","Address":"4780 James Monroe Hwy","City":"Colonial Beach","State":"Virginia","Zip":22443,"Phone":"978-494-6311","Weddings":"Y","PicnicArea":"Y","Overnight":" ","Region":"Chesapeake Bay","FoodAvailable":"Y","GiftShop":" ","TastingRoom":" ","GroupTour":" ","PrivateParty":"Y","TastingFee":"Y","Website":"http://www.MonroeBayWine.com","VaWine_Website":"https://www.virginiawine.org/wineries/1922","VaWine_ID":1922,"GlobalID":"{B53E27AC-BB37-4E1B-9932-A3E4B0139DEE}"},"geometry":{"type":"Point","coordinates":[-76.9826902242101,38.2433440513402]}},{"type":"Feature","properties":{"OBJECTID":408,"Name":"Morais Vineyards & Winery","Address":"11409 Marsh Road","City":"Bealeton","State":"VA","Zip":22712,"Phone":"540-729-2763","Weddings":"Y","PicnicArea":"Y","Overnight":" ","Region":"Northern Virginia","FoodAvailable":" ","GiftShop":" ","TastingRoom":"Y","GroupTour":"Y","PrivateParty":"Y","TastingFee":" ","Website":"http://www.moraisvineyards.com/","VaWine_Website":"https://www.virginiawine.org/wineries/1500","VaWine_ID":1500,"GlobalID":"{1DF4C46A-0C92-44E4-AB4D-733DA48BDDB8}"},"geometry":{"type":"Point","coordinates":[-77.75113619817425,38.56695824948589]}},{"type":"Feature","properties":{"OBJECTID":409,"Name":"Moss Vineyards","Address":"1849 Simmons Gap Road","City":"Nortonsville","State":"Virginia","Zip":22935,"Phone":"434-990-0111","Weddings":" ","PicnicArea":" ","Overnight":" ","Region":"Central Virginia","FoodAvailable":" ","GiftShop":" ","TastingRoom":" ","GroupTour":" ","PrivateParty":" ","TastingFee":" ","Website":"http://www.mossvineyards.net","VaWine_Website":"https://www.virginiawine.org/wineries/1501","VaWine_ID":1501,"GlobalID":"{B91B2BF3-8D5B-49CD-AE24-7946C359247A}"},"geometry":{"type":"Point","coordinates":[-78.5544493885962,38.23755949101684]}},{"type":"Feature","properties":{"OBJECTID":410,"Name":"Mountain Cove Vineyards","Address":"1362 Fortunes Cove Lane","City":"Lovingston","State":"VA","Zip":22949,"Phone":"434-263-5392","Weddings":" ","PicnicArea":" ","Overnight":" ","Region":"Central Virginia","FoodAvailable":" ","GiftShop":" ","TastingRoom":" ","GroupTour":" ","PrivateParty":" ","TastingFee":"Y","Website":"http://www.mountaincovevineyards.com","VaWine_Website":"https://www.virginiawine.org/wineries/26","VaWine_ID":26,"GlobalID":"{6D70EE3B-66B9-4E5F-A124-3F14284DC4C5}"},"geometry":{"type":"Point","coordinates":[-78.89085450189674,37.7755144659075]}},{"type":"Feature","properties":{"OBJECTID":411,"Name":"Mountain Run Winery","Address":"10753 Mountain Run Lake Road","City":"Culpeper","State":"Virginia","Zip":22701,"Phone":"703-638-5559","Weddings":"Y","PicnicArea":"Y","Overnight":" ","Region":" ","FoodAvailable":"Y","GiftShop":"Y","TastingRoom":"Y","GroupTour":"Y","PrivateParty":"Y","TastingFee":"Y","Website":"http://www.MountainRunWinery.com","VaWine_Website":"https://www.virginiawine.org/wineries/2072","VaWine_ID":2072,"GlobalID":"{4F6BA5AC-FC29-4465-B118-0586CC0FCE85}"},"geometry":{"type":"Point","coordinates":[-78.05154396141693,38.46631714773223]}},{"type":"Feature","properties":{"OBJECTID":412,"Name":"Mountain View Vineyard","Address":"444 Signal Knob Drive","City":"Strasburg","State":"Virginia","Zip":22657,"Phone":"(540) 635-5369","Weddings":" ","PicnicArea":" ","Overnight":"Y","Region":"Shenandoah Valley","FoodAvailable":" ","GiftShop":" ","TastingRoom":" ","GroupTour":" ","PrivateParty":" ","TastingFee":" ","Website":" ","VaWine_Website":"https://www.virginiawine.org/wineries/1482","VaWine_ID":1482,"GlobalID":"{FC897578-06CA-44AB-BDD9-7872466CCB22}"},"geometry":{"type":"Point","coordinates":[-78.29069290711357,38.97637342765631]}},{"type":"Feature","properties":{"OBJECTID":413,"Name":"MountainRose Vineyards Inc","Address":"10439 N. Reservoir Rd.","City":"Wise","State":"VA","Zip":24293,"Phone":"(276) 328-2013","Weddings":" ","PicnicArea":" ","Overnight":" ","Region":"Heart of Appalachia","FoodAvailable":" ","GiftShop":" ","TastingRoom":" ","GroupTour":" ","PrivateParty":" ","TastingFee":" ","Website":"http://www.mountainrosevineyard.com","VaWine_Website":"https://www.virginiawine.org/wineries/28","VaWine_ID":28,"GlobalID":"{44C7C53F-EB86-40AE-B13E-C12AF3E42099}"},"geometry":{"type":"Point","coordinates":[-82.5240693838587,36.97084692396637]}},{"type":"Feature","properties":{"OBJECTID":414,"Name":"Mountfair Vineyards","Address":"4875 Fox Mountain Rd","City":"Crozet","State":"Virginia","Zip":22932,"Phone":"434-823-7605","Weddings":" ","PicnicArea":" ","Overnight":" ","Region":"Central Virginia","FoodAvailable":" ","GiftShop":" ","TastingRoom":" ","GroupTour":" ","PrivateParty":" ","TastingFee":"Y","Website":"http://www.mountfair.com","VaWine_Website":"https://www.virginiawine.org/wineries/140","VaWine_ID":140,"GlobalID":"{9F6CD642-EF1F-45EC-988E-8525DA297DEC}"},"geometry":{"type":"Point","coordinates":[-78.66702137400873,38.16821394353243]}},{"type":"Feature","properties":{"OBJECTID":415,"Name":"Mt Vale Vineyards","Address":"3222 Meadow Creek Road","City":"Galax","State":"VA","Zip":24333,"Phone":"(276) 238-9946","Weddings":" ","PicnicArea":" ","Overnight":" ","Region":"Blue Ridge","FoodAvailable":" ","GiftShop":" ","TastingRoom":" ","GroupTour":" ","PrivateParty":" ","TastingFee":" ","Website":"http://www.mtvalevineyard.com/","VaWine_Website":"https://www.virginiawine.org/wineries/1496","VaWine_ID":1496,"GlobalID":"{31B962C9-185F-47DC-B396-D42DBA24A898}"},"geometry":{"type":"Point","coordinates":[-80.93234660261513,36.6136041015593]}},{"type":"Feature","properties":{"OBJECTID":416,"Name":"Muse Vineyards","Address":"16 Serendipity Lane","City":"Woodstock","State":"VA","Zip":22664,"Phone":"540-459-7033","Weddings":" ","PicnicArea":" ","Overnight":" ","Region":"Shenandoah Valley","FoodAvailable":" ","GiftShop":" ","TastingRoom":" ","GroupTour":" ","PrivateParty":" ","TastingFee":"Y","Website":"http://www.musevineyards.com","VaWine_Website":"https://www.virginiawine.org/wineries/1483","VaWine_ID":1483,"GlobalID":"{492AC5BE-D989-4CF3-9B1C-1BA478503A7C}"},"geometry":{"type":"Point","coordinates":[-78.50142729907513,38.85737185899196]}},{"type":"Feature","properties":{"OBJECTID":417,"Name":"Naked Mountain Winery and Vineyards","Address":"2747 Leeds Manor Road","City":"Markham","State":"Virginia","Zip":22643,"Phone":"540-364-1609","Weddings":" ","PicnicArea":" ","Overnight":" ","Region":"Northern Virginia","FoodAvailable":" ","GiftShop":" ","TastingRoom":" ","GroupTour":" ","PrivateParty":" ","TastingFee":"Y","Website":"http://www.nakedmtnwinery.com","VaWine_Website":"https://www.virginiawine.org/wineries/85","VaWine_ID":85,"GlobalID":"{799DE690-C6D0-4CDC-B747-3E3DC024A5E0}"},"geometry":{"type":"Point","coordinates":[-77.9979969655672,38.92815956139725]}},{"type":"Feature","properties":{"OBJECTID":418,"Name":"Narmada Winery","Address":"43 Narmada Lane","City":"Amissville","State":"Virginia","Zip":20106,"Phone":"540-937-8215","Weddings":"Y","PicnicArea":"Y","Overnight":" ","Region":"Northern Virginia","FoodAvailable":"Y","GiftShop":" ","TastingRoom":" ","GroupTour":" ","PrivateParty":"Y","TastingFee":"Y","Website":"http://www.narmadawinery.com/","VaWine_Website":"https://www.virginiawine.org/wineries/242","VaWine_ID":242,"GlobalID":"{BC311676-D5F9-4E67-9BEE-4B0C08508328}"},"geometry":{"type":"Point","coordinates":[-78.02388957051446,38.68881833781333]}},{"type":"Feature","properties":{"OBJECTID":419,"Name":"New Kent Winery","Address":"8400 Old Church Road","City":"New Kent","State":"VA","Zip":23124,"Phone":"804-932-8240","Weddings":" ","PicnicArea":" ","Overnight":" ","Region":"Hampton Roads","FoodAvailable":" ","GiftShop":" ","TastingRoom":" ","GroupTour":" ","PrivateParty":" ","TastingFee":" ","Website":"http://NewKentWinery.com","VaWine_Website":"https://www.virginiawine.org/wineries/51","VaWine_ID":51,"GlobalID":"{84AF134A-45C8-4DC2-BCC5-462F073922C5}"},"geometry":{"type":"Point","coordinates":[-77.07553807883579,37.52894981355203]}},{"type":"Feature","properties":{"OBJECTID":420,"Name":"North Gate Vineyard","Address":"16031 Hillsboro Road","City":"Purcelleville","State":"VA","Zip":20132,"Phone":"540-668-6248","Weddings":" ","PicnicArea":"Y","Overnight":" ","Region":"Northern Virginia","FoodAvailable":" ","GiftShop":"Y","TastingRoom":"Y","GroupTour":"Y","PrivateParty":" ","TastingFee":"Y","Website":"http://www.northgatevineyard.com","VaWine_Website":"https://www.virginiawine.org/wineries/70","VaWine_ID":70,"GlobalID":"{8C6C4FE9-35F6-4D7E-AA56-92E90E6269BE}"},"geometry":{"type":"Point","coordinates":[-77.72585063599057,39.17516884610848]}},{"type":"Feature","properties":{"OBJECTID":421,"Name":"North Mountain Vineyard & Winery","Address":"4374 Swartz Road","City":"Maurertown","State":"Virginia","Zip":22644,"Phone":"540-436-9463","Weddings":"Y","PicnicArea":"Y","Overnight":" ","Region":"Shenandoah Valley","FoodAvailable":"Y","GiftShop":"Y","TastingRoom":"Y","GroupTour":"Y","PrivateParty":"Y","TastingFee":" ","Website":"http://www.northmountainvineyard.com","VaWine_Website":"https://www.virginiawine.org/wineries/80","VaWine_ID":80,"GlobalID":"{F6E58BCD-A34C-42F9-A1D4-65CC8EE0FF9A}"},"geometry":{"type":"Point","coordinates":[-78.4798673073517,38.94749474822027]}},{"type":"Feature","properties":{"OBJECTID":422,"Name":"Notaviva Vineyards","Address":"13274 Sagle Road","City":"Purcellville","State":"VA","Zip":20132,"Phone":"540-668-6756","Weddings":" ","PicnicArea":"Y","Overnight":"Y","Region":"Northern Virginia","FoodAvailable":"Y","GiftShop":"Y","TastingRoom":" ","GroupTour":" ","PrivateParty":" ","TastingFee":"Y","Website":"http://www.NotavivaVineyards.com","VaWine_Website":"https://www.virginiawine.org/wineries/9","VaWine_ID":9,"GlobalID":"{859CA1C3-0991-4F25-8754-D91AE415599A}"},"geometry":{"type":"Point","coordinates":[-77.74783833059614,39.25285846313727]}},{"type":"Feature","properties":{"OBJECTID":423,"Name":"Nova Ridge Vineyards","Address":"14689 Nina Court","City":"Waterford","State":"VA","Zip":20197,"Phone":" ","Weddings":" ","PicnicArea":" ","Overnight":" ","Region":"Northern Virginia","FoodAvailable":" ","GiftShop":" ","TastingRoom":" ","GroupTour":" ","PrivateParty":" ","TastingFee":"Y","Website":"http://www.novaridgevineyards.com","VaWine_Website":"https://www.virginiawine.org/wineries/1620","VaWine_ID":1620,"GlobalID":"{B0E2385F-FE46-45D2-919C-EEBC6B36A5FA}"},"geometry":{"type":"Point","coordinates":[-77.64892948867484,39.210012803558975]}},{"type":"Feature","properties":{"OBJECTID":424,"Name":"Oak Crest Vineyard & Winery","Address":"8215 Oak Crest Drive","City":"King George","State":"Virginia","Zip":22485,"Phone":"540-663-2813","Weddings":" ","PicnicArea":" ","Overnight":" ","Region":"Chesapeake Bay","FoodAvailable":" ","GiftShop":" ","TastingRoom":" ","GroupTour":" ","PrivateParty":" ","TastingFee":"Y","Website":"http://www.oakcrestwinery.com","VaWine_Website":"https://www.virginiawine.org/wineries/45","VaWine_ID":45,"GlobalID":"{FF0B31BE-1E55-4BA3-9454-F82FB21E6E80}"},"geometry":{"type":"Point","coordinates":[-77.07282075086165,38.29701156115552]}},{"type":"Feature","properties":{"OBJECTID":425,"Name":"Old Hill Cider","Address":"17768 Honeyville Road","City":"Timberville","State":"VA","Zip":22853,"Phone":"540-896-7582","Weddings":" ","PicnicArea":" ","Overnight":" ","Region":"Shenandoah Valley","FoodAvailable":" ","GiftShop":" ","TastingRoom":" ","GroupTour":" ","PrivateParty":" ","TastingFee":"Y","Website":"http://www.oldhillcider.com","VaWine_Website":"https://www.virginiawine.org/wineries/1617","VaWine_ID":1617,"GlobalID":"{4E52A6AF-AA1E-4941-84FE-16EF144838B5}"},"geometry":{"type":"Point","coordinates":[-78.79657204289437,38.66770856431323]}},{"type":"Feature","properties":{"OBJECTID":426,"Name":"Old House Vineyards","Address":"18351 Corkys Lane","City":"Culpeper","State":"VA","Zip":22701,"Phone":"540-423-1032","Weddings":" ","PicnicArea":" ","Overnight":" ","Region":"Northern Virginia","FoodAvailable":" ","GiftShop":" ","TastingRoom":" ","GroupTour":" ","PrivateParty":" ","TastingFee":" ","Website":"http://www.oldhousevineyards.com","VaWine_Website":"https://www.virginiawine.org/wineries/76","VaWine_ID":76,"GlobalID":"{3739FDDE-E16D-464B-932D-9E84E9EF7BFA}"},"geometry":{"type":"Point","coordinates":[-77.91284413277907,38.4548212539599]}},{"type":"Feature","properties":{"OBJECTID":427,"Name":"Otium Cellars","Address":"18050 Tranquility Rd.","City":"Purcellville","State":"VA","Zip":20132,"Phone":"(540) 338-2027","Weddings":" ","PicnicArea":" ","Overnight":" ","Region":"Northern Virginia","FoodAvailable":" ","GiftShop":" ","TastingRoom":" ","GroupTour":" ","PrivateParty":" ","TastingFee":"Y","Website":"http://www.otiumcellars.com","VaWine_Website":"https://www.virginiawine.org/wineries/1502","VaWine_ID":1502,"GlobalID":"{43DA1740-BC10-42A6-BA4C-FBAE64DBB41D}"},"geometry":{"type":"Point","coordinates":[-77.74519902840758,39.11541642337913]}},{"type":"Feature","properties":{"OBJECTID":428,"Name":"Ox Eye Vineyards","Address":"44 Middlebrook Avenue","City":"Staunton","State":"VA","Zip":24401,"Phone":"540-849-7926","Weddings":" ","PicnicArea":" ","Overnight":" ","Region":"Shenandoah Valley","FoodAvailable":"Y","GiftShop":" ","TastingRoom":" ","GroupTour":" ","PrivateParty":" ","TastingFee":" ","Website":"http://www.OxEyeVineyards.com","VaWine_Website":"https://www.virginiawine.org/wineries/1135","VaWine_ID":1135,"GlobalID":"{99A68188-3E6D-4B6B-991F-5DEE211964FA}"},"geometry":{"type":"Point","coordinates":[-79.0740085528665,38.14700035892272]}},{"type":"Feature","properties":{"OBJECTID":429,"Name":"Paradise Springs Winery","Address":"13219 Yates Ford Road","City":"Clifton","State":"Virginia","Zip":20124,"Phone":"703-830-9463","Weddings":" ","PicnicArea":" ","Overnight":" ","Region":"Northern Virginia","FoodAvailable":" ","GiftShop":" ","TastingRoom":" ","GroupTour":" ","PrivateParty":" ","TastingFee":"Y","Website":"http://www.paradisespringswinery.com/","VaWine_Website":"https://www.virginiawine.org/wineries/250","VaWine_ID":250,"GlobalID":"{5D92BDBF-F952-4A44-A6E6-89444A91674E}"},"geometry":{"type":"Point","coordinates":[-77.40507096692755,38.76569053565989]}},{"type":"Feature","properties":{"OBJECTID":430,"Name":"Peaks of Otter Winery","Address":"2122 Sheep Creek Rd","City":"Bedford","State":"Virginia","Zip":24523,"Phone":"540-586-3707","Weddings":" ","PicnicArea":" ","Overnight":" ","Region":"Central Virginia","FoodAvailable":" ","GiftShop":" ","TastingRoom":" ","GroupTour":" ","PrivateParty":" ","TastingFee":"Y","Website":"http://www.IwineU.com","VaWine_Website":"https://www.virginiawine.org/wineries/30","VaWine_ID":30,"GlobalID":"{487368D9-BD30-44AE-A02B-0F385291E086}"},"geometry":{"type":"Point","coordinates":[-79.62440018171137,37.400070475108805]}},{"type":"Feature","properties":{"OBJECTID":431,"Name":"Pearmund Cellars","Address":"6190 Georgetown Road","City":"Broad Run","State":"VA","Zip":20137,"Phone":"540-347-3475","Weddings":" ","PicnicArea":"Y","Overnight":" ","Region":"Northern Virginia","FoodAvailable":" ","GiftShop":" ","TastingRoom":" ","GroupTour":" ","PrivateParty":" ","TastingFee":"Y","Website":"http://www.PearmundCellars.com","VaWine_Website":"https://www.virginiawine.org/wineries/112","VaWine_ID":112,"GlobalID":"{38B04381-3A76-4153-9E4A-4431829D67DD}"},"geometry":{"type":"Point","coordinates":[-77.73887797328007,38.78454998273367]}},{"type":"Feature","properties":{"OBJECTID":432,"Name":"Philip Carter Winery","Address":"4366 Stillhouse Road","City":"Hume","State":"VA","Zip":22639,"Phone":"540-364-1203","Weddings":" ","PicnicArea":" ","Overnight":" ","Region":"Northern Virginia","FoodAvailable":" ","GiftShop":" ","TastingRoom":" ","GroupTour":" ","PrivateParty":" ","TastingFee":" ","Website":"http://www.pcwinery.com","VaWine_Website":"https://www.virginiawine.org/wineries/5","VaWine_ID":5,"GlobalID":"{A65750C1-F8F1-4ADD-A408-107FDA554076}"},"geometry":{"type":"Point","coordinates":[-77.99085926740538,38.856051189224104]}},{"type":"Feature","properties":{"OBJECTID":433,"Name":"Pippin Hill Farm & Vineyards","Address":"5022 Plank Road","City":"North Garden","State":"VA","Zip":22959,"Phone":"434-202-8063","Weddings":"Y","PicnicArea":"Y","Overnight":" ","Region":"Central Virginia","FoodAvailable":"Y","GiftShop":"Y","TastingRoom":"Y","GroupTour":"Y","PrivateParty":"Y","TastingFee":"Y","Website":"http://www.pippinhillfarm.com","VaWine_Website":"https://www.virginiawine.org/wineries/1336","VaWine_ID":1336,"GlobalID":"{78871ED8-8C58-450F-B7CA-B598DAFBB8E6}"},"geometry":{"type":"Point","coordinates":[-78.67984844592175,37.9717747136851]}},{"type":"Feature","properties":{"OBJECTID":434,"Name":"Plum Creek Winery","Address":"5418 Thompson Valley Road","City":"Tazewell","State":"VA","Zip":24651,"Phone":" ","Weddings":" ","PicnicArea":" ","Overnight":" ","Region":"Southern Virginia","FoodAvailable":" ","GiftShop":" ","TastingRoom":" ","GroupTour":" ","PrivateParty":" ","TastingFee":"Y","Website":"http://tinyurl.com/nzjdp46","VaWine_Website":"https://www.virginiawine.org/wineries/1707","VaWine_ID":1707,"GlobalID":"{C4CE6FFC-E09D-437F-8459-DD7914F0C966}"},"geometry":{"type":"Point","coordinates":[-81.58645102875043,37.04744111598026]}},{"type":"Feature","properties":{"OBJECTID":435,"Name":"Pollak Vineyards","Address":"330 Newtown Road","City":"Greenwood","State":"VA","Zip":22943,"Phone":"540-456-8844","Weddings":" ","PicnicArea":" ","Overnight":" ","Region":"Central Virginia","FoodAvailable":" ","GiftShop":" ","TastingRoom":" ","GroupTour":" ","PrivateParty":" ","TastingFee":" ","Website":"http://www.pollakvineyards.com","VaWine_Website":"https://www.virginiawine.org/wineries/114","VaWine_ID":114,"GlobalID":"{928E7B6E-3267-4BB8-A581-C759858FF597}"},"geometry":{"type":"Point","coordinates":[-78.79436160141799,38.03456645100816]}},{"type":"Feature","properties":{"OBJECTID":436,"Name":"Potomac Point Winery","Address":"275 Decatur Road","City":"Stafford","State":"Virginia","Zip":22554,"Phone":"540-446-2266","Weddings":" ","PicnicArea":" ","Overnight":" ","Region":"Northern Virginia","FoodAvailable":" ","GiftShop":" ","TastingRoom":" ","GroupTour":" ","PrivateParty":" ","TastingFee":"Y","Website":"http://www.potomacpointwinery.com","VaWine_Website":"https://www.virginiawine.org/wineries/38","VaWine_ID":38,"GlobalID":"{50417319-5BEC-4F3D-9705-79211BD8EF96}"},"geometry":{"type":"Point","coordinates":[-77.34430193042134,38.457868726487526]}},{"type":"Feature","properties":{"OBJECTID":437,"Name":"Potter's Craft Cider","Address":"4699 Catterton Rd","City":"Free Union","State":"Virginia","Zip":22936,"Phone":" ","Weddings":" ","PicnicArea":" ","Overnight":" ","Region":"Central Virginia","FoodAvailable":" ","GiftShop":" ","TastingRoom":" ","GroupTour":" ","PrivateParty":" ","TastingFee":"Y","Website":"http://potterscraftcider.com/","VaWine_Website":"https://www.virginiawine.org/wineries/1624","VaWine_ID":1624,"GlobalID":"{3035607B-8658-4D41-A307-BB2C60359355}"},"geometry":{"type":"Point","coordinates":[-78.54957303940547,38.171571638710326]}},{"type":"Feature","properties":{"OBJECTID":438,"Name":"Preston Ridge Winery","Address":"4105 Preston Rd","City":"Martinsville","State":"Virginia","Zip":24112,"Phone":"(276 )957-2100","Weddings":" ","PicnicArea":" ","Overnight":" ","Region":"Southern Virginia","FoodAvailable":" ","GiftShop":" ","TastingRoom":" ","GroupTour":" ","PrivateParty":" ","TastingFee":"Y","Website":"http://www.prestonridgewinery.com","VaWine_Website":"https://www.virginiawine.org/wineries/1139","VaWine_ID":1139,"GlobalID":"{2F184B12-DD2E-4BD1-84D5-C03778EB39BC}"},"geometry":{"type":"Point","coordinates":[-79.99419673354913,36.671757088021785]}},{"type":"Feature","properties":{"OBJECTID":439,"Name":"Prince Michel Vineyard","Address":"154 Winery Lane","City":"Leon","State":"Virginia","Zip":22725,"Phone":"800-800-WINE (9463)","Weddings":" ","PicnicArea":" ","Overnight":" ","Region":"Central Virginia","FoodAvailable":" ","GiftShop":" ","TastingRoom":" ","GroupTour":" ","PrivateParty":" ","TastingFee":"Y","Website":"http://www.princemichel.com","VaWine_Website":"https://www.virginiawine.org/wineries/87","VaWine_ID":87,"GlobalID":"{6F6D6D58-1543-4FF3-BF44-0EFBC425522C}"},"geometry":{"type":"Point","coordinates":[-78.15429064607433,38.43620660384004]}},{"type":"Feature","properties":{"OBJECTID":440,"Name":"Pungo Ridge Winery","Address":"1665 Princess Anne rd.","City":"Virginia Beach","State":"VA","Zip":23456,"Phone":"757-426-1665","Weddings":" ","PicnicArea":"Y","Overnight":" ","Region":"Hampton Roads","FoodAvailable":"Y","GiftShop":"Y","TastingRoom":"Y","GroupTour":"Y","PrivateParty":"Y","TastingFee":"Y","Website":"http://www.pungoridgewinery.com","VaWine_Website":"https://www.virginiawine.org/wineries/1503","VaWine_ID":1503,"GlobalID":"{54346823-51A2-4AD5-8F95-CD1FA5D4C355}"},"geometry":{"type":"Point","coordinates":[-76.0215845236997,36.71213733632663]}},{"type":"Feature","properties":{"OBJECTID":441,"Name":"Quattro Goombas Winery","Address":"22860 James Monroe Hwy.","City":"Aldie","State":"Virginia","Zip":20105,"Phone":"703-327-6052","Weddings":" ","PicnicArea":" ","Overnight":" ","Region":"Northern Virginia","FoodAvailable":" ","GiftShop":" ","TastingRoom":" ","GroupTour":" ","PrivateParty":" ","TastingFee":"Y","Website":"http://www.goombawine.com","VaWine_Website":"https://www.virginiawine.org/wineries/91","VaWine_ID":91,"GlobalID":"{08225F11-BCD5-4226-8E82-88FC2AE42885}"},"geometry":{"type":"Point","coordinates":[-77.61679767786462,38.98543534715047]}},{"type":"Feature","properties":{"OBJECTID":442,"Name":"Quievremont","Address":"67 Reality Farm Ln","City":"Washington","State":"VA","Zip":22747,"Phone":"(540) 987-3192","Weddings":" ","PicnicArea":"Y","Overnight":" ","Region":" ","FoodAvailable":"Y","GiftShop":" ","TastingRoom":" ","GroupTour":" ","PrivateParty":" ","TastingFee":"Y","Website":"http://www.quievremont.com","VaWine_Website":"https://www.virginiawine.org/wineries/1700","VaWine_ID":1700,"GlobalID":"{B5E087C7-4AC1-44DD-A175-7C40723EE128}"},"geometry":{"type":"Point","coordinates":[-78.21037964633113,38.6930060255159]}},{"type":"Feature","properties":{"OBJECTID":443,"Name":"Ramulose Ridge Vineyards","Address":"3061 Hendricks Store road","City":"Moneta","State":"VA","Zip":24121,"Phone":"(540)309-6375","Weddings":" ","PicnicArea":"Y","Overnight":"Y","Region":"Central Virginia","FoodAvailable":" ","GiftShop":" ","TastingRoom":" ","GroupTour":" ","PrivateParty":"Y","TastingFee":"Y","Website":"http://www.ramuloseridgevineyards.com/","VaWine_Website":"https://www.virginiawine.org/wineries/1693","VaWine_ID":1693,"GlobalID":"{CB77583F-45B4-4CE7-A508-6F28E3CB7EDE}"},"geometry":{"type":"Point","coordinates":[-79.62928242391996,37.136141642635145]}},{"type":"Feature","properties":{"OBJECTID":444,"Name":"Rappahannock Cellars","Address":"14437 Hume Road","City":"Huntly","State":"VA","Zip":22640,"Phone":"540-635-9398","Weddings":" ","PicnicArea":" ","Overnight":" ","Region":"Northern Virginia","FoodAvailable":" ","GiftShop":" ","TastingRoom":" ","GroupTour":" ","PrivateParty":" ","TastingFee":" ","Website":"http://www.rcellars.com","VaWine_Website":"https://www.virginiawine.org/wineries/52","VaWine_ID":52,"GlobalID":"{4395F222-1676-4E65-BC01-9B09AC9E31D0}"},"geometry":{"type":"Point","coordinates":[-78.1141026568224,38.835519512385694]}},{"type":"Feature","properties":{"OBJECTID":445,"Name":"RdV Vineyards","Address":"2550 Delaplane Grade Rd","City":"Delaplane","State":"VA","Zip":20144,"Phone":"540-346-0221","Weddings":" ","PicnicArea":" ","Overnight":" ","Region":"Northern Virginia","FoodAvailable":" ","GiftShop":" ","TastingRoom":" ","GroupTour":" ","PrivateParty":" ","TastingFee":"Y","Website":"http://www.rdvvineyards.com","VaWine_Website":"https://www.virginiawine.org/wineries/1436","VaWine_ID":1436,"GlobalID":"{41946553-5C44-4055-B995-925499199E7D}"},"geometry":{"type":"Point","coordinates":[-77.91803057791958,38.93496117246876]}},{"type":"Feature","properties":{"OBJECTID":446,"Name":"Rebec Vineyards Inc","Address":"2229 North Amherst Hwy","City":"Amherst","State":"VA","Zip":24521,"Phone":"434-946-5168","Weddings":"Y","PicnicArea":"Y","Overnight":" ","Region":"Central Virginia","FoodAvailable":" ","GiftShop":"Y","TastingRoom":" ","GroupTour":" ","PrivateParty":" ","TastingFee":" ","Website":"http://www.rebecwinery.com","VaWine_Website":"https://www.virginiawine.org/wineries/55","VaWine_ID":55,"GlobalID":"{35752EA0-2A1F-4275-8637-B7C3F162993D}"},"geometry":{"type":"Point","coordinates":[-78.98564006875317,37.641285386840956]}},{"type":"Feature","properties":{"OBJECTID":447,"Name":"Reynard Florence Vineyard","Address":"16109 Burnley Road","City":"Barboursville","State":"VA","Zip":22923,"Phone":"540-832-3895 / alt: 434-962-1849","Weddings":" ","PicnicArea":"Y","Overnight":" ","Region":"Central Virginia","FoodAvailable":" ","GiftShop":"Y","TastingRoom":" ","GroupTour":" ","PrivateParty":" ","TastingFee":" ","Website":"http://www.reynardflorence.com/","VaWine_Website":"https://www.virginiawine.org/wineries/1320","VaWine_ID":1320,"GlobalID":"{D15FE6AB-8D4C-4785-8B6D-3A506DEC9DE8}"},"geometry":{"type":"Point","coordinates":[-78.33724244687829,38.18540530366153]}},{"type":"Feature","properties":{"OBJECTID":448,"Name":"Rockbridge Vineyard","Address":"35 Hill View Lane","City":"Raphine","State":"VA","Zip":24472,"Phone":"540-377-6204","Weddings":" ","PicnicArea":" ","Overnight":" ","Region":"Shenandoah Valley","FoodAvailable":" ","GiftShop":" ","TastingRoom":" ","GroupTour":" ","PrivateParty":" ","TastingFee":" ","Website":"http://www.rockbridgevineyard.com","VaWine_Website":"https://www.virginiawine.org/wineries/12","VaWine_ID":12,"GlobalID":"{E7586283-DC4B-455E-91C4-A8EC5CF542A7}"},"geometry":{"type":"Point","coordinates":[-79.2411907070254,37.94202260468015]}},{"type":"Feature","properties":{"OBJECTID":449,"Name":"Rogers Ford Farm Winery","Address":"14674 Rogers Ford Road","City":"Sumerduck","State":"VA","Zip":22742,"Phone":"540-439-3707","Weddings":" ","PicnicArea":" ","Overnight":" ","Region":"Northern Virginia","FoodAvailable":" ","GiftShop":"Y","TastingRoom":" ","GroupTour":" ","PrivateParty":" ","TastingFee":"Y","Website":"http://www.rogersfordwine.com","VaWine_Website":"https://www.virginiawine.org/wineries/95","VaWine_ID":95,"GlobalID":"{E7428880-B2CE-47FF-8E5A-AC8F08130BF9}"},"geometry":{"type":"Point","coordinates":[-77.73217606457305,38.42499884040762]}},{"type":"Feature","properties":{"OBJECTID":450,"Name":"Rosemont Vineyards & Winery","Address":"1050 Blackridge Road","City":"LaCrosse","State":"Virginia","Zip":23950,"Phone":"434-636-9463","Weddings":" ","PicnicArea":" ","Overnight":" ","Region":"Southern Virginia","FoodAvailable":" ","GiftShop":" ","TastingRoom":" ","GroupTour":" ","PrivateParty":" ","TastingFee":" ","Website":"http://www.RosemontofVirginia.com","VaWine_Website":"https://www.virginiawine.org/wineries/92","VaWine_ID":92,"GlobalID":"{D4B2846B-939E-48EA-8C9A-36125D6147AA}"},"geometry":{"type":"Point","coordinates":[-78.06584079615672,36.59173440834988]}},{"type":"Feature","properties":{"OBJECTID":451,"Name":"Rural Retreat Winery & Vineyards","Address":"202 Church Street","City":"Rural Retreat","State":"Virginia","Zip":24368,"Phone":"276-686-8300","Weddings":" ","PicnicArea":" ","Overnight":" ","Region":"Blue Ridge","FoodAvailable":" ","GiftShop":" ","TastingRoom":" ","GroupTour":" ","PrivateParty":" ","TastingFee":" ","Website":"http://www.ruralretreatwinery.com","VaWine_Website":"https://www.virginiawine.org/wineries/64","VaWine_ID":64,"GlobalID":"{A1BE4BCA-D871-477E-B839-299FD3BA9A44}"},"geometry":{"type":"Point","coordinates":[-81.27656310371444,36.8946198693663]}},{"type":"Feature","properties":{"OBJECTID":452,"Name":"Sans Soucy Vineyards","Address":"1571 Mt Calvary Rd","City":"Brookneal","State":"Virginia","Zip":24528,"Phone":"434-376-9463","Weddings":" ","PicnicArea":" ","Overnight":" ","Region":"Central Virginia","FoodAvailable":" ","GiftShop":" ","TastingRoom":" ","GroupTour":" ","PrivateParty":" ","TastingFee":" ","Website":"http://www.sanssoucyvineyards.com","VaWine_Website":"https://www.virginiawine.org/wineries/54","VaWine_ID":54,"GlobalID":"{E37EDA2B-6FD4-4890-AB2B-20D12FA2ED5E}"},"geometry":{"type":"Point","coordinates":[-78.89580593814335,37.060534434012396]}},{"type":"Feature","properties":{"OBJECTID":453,"Name":"Sassafras Shade Vineyard","Address":"4492 Ladysmith Road","City":"Ruther Glen","State":"VA","Zip":22546,"Phone":"804-596-0179","Weddings":"Y","PicnicArea":"Y","Overnight":" ","Region":"Northern Virginia","FoodAvailable":"Y","GiftShop":"Y","TastingRoom":"Y","GroupTour":"Y","PrivateParty":"Y","TastingFee":"Y","Website":"http://www.sassafrasshade.com","VaWine_Website":"https://www.virginiawine.org/wineries/1729","VaWine_ID":1729,"GlobalID":"{A2D4EC19-CF7B-402E-955A-A590E8F281DF}"},"geometry":{"type":"Point","coordinates":[-77.56722163253461,38.00974647569337]}},{"type":"Feature","properties":{"OBJECTID":454,"Name":"Saudé Creek Vineyards","Address":"16230 Cooks Mill Rd","City":"Lanexa","State":"VA","Zip":23089,"Phone":"804-966-5896","Weddings":" ","PicnicArea":" ","Overnight":" ","Region":"Hampton Roads","FoodAvailable":" ","GiftShop":" ","TastingRoom":" ","GroupTour":" ","PrivateParty":" ","TastingFee":" ","Website":"http://www.saudecreek.com","VaWine_Website":"https://www.virginiawine.org/wineries/1133","VaWine_ID":1133,"GlobalID":"{5B4253A3-71E9-4AAD-ACFC-720DAAC759BA}"},"geometry":{"type":"Point","coordinates":[-76.88543757840672,37.51580388854758]}},{"type":"Feature","properties":{"OBJECTID":455,"Name":"Sharp Rock Vineyards","Address":"5 Sharp Rock Rd","City":"Sperryville","State":"Virginia","Zip":22740,"Phone":"540-987-8020","Weddings":"Y","PicnicArea":"Y","Overnight":" ","Region":"Northern Virginia","FoodAvailable":" ","GiftShop":" ","TastingRoom":"Y","GroupTour":"Y","PrivateParty":"Y","TastingFee":"Y","Website":"http://www.sharprockvineyards.com","VaWine_Website":"https://www.virginiawine.org/wineries/31","VaWine_ID":31,"GlobalID":"{46AF8BD8-8A8D-42B4-BC7C-5F1B06422790}"},"geometry":{"type":"Point","coordinates":[-78.25514087861832,38.555180146067606]}},{"type":"Feature","properties":{"OBJECTID":456,"Name":"Shenandoah Vineyards","Address":"3659 S. Ox Rd.","City":"Edinburg","State":"VA","Zip":22824,"Phone":"540-984-8699","Weddings":" ","PicnicArea":" ","Overnight":" ","Region":"Shenandoah Valley","FoodAvailable":" ","GiftShop":" ","TastingRoom":" ","GroupTour":" ","PrivateParty":" ","TastingFee":"Y","Website":"http://www.ShenandoahVineyardsVA.com","VaWine_Website":"https://www.virginiawine.org/wineries/117","VaWine_ID":117,"GlobalID":"{BF0ADF5B-0078-4DC5-9762-92AF7047639C}"},"geometry":{"type":"Point","coordinates":[-78.5589991382184,38.84895864968773]}},{"type":"Feature","properties":{"OBJECTID":457,"Name":"Skippers Creek Vineyard","Address":"965 Rocky Ford Rd","City":"Powhatan","State":"VA","Zip":23139,"Phone":"804.598.7291","Weddings":"Y","PicnicArea":"Y","Overnight":" ","Region":"Central Virginia","FoodAvailable":"Y","GiftShop":" ","TastingRoom":" ","GroupTour":" ","PrivateParty":"Y","TastingFee":"Y","Website":"http://skipperscreek.com/","VaWine_Website":"https://www.virginiawine.org/wineries/1689","VaWine_ID":1689,"GlobalID":"{4B2D6584-8874-40ED-8DB4-9299A0BCA6CC}"},"geometry":{"type":"Point","coordinates":[-77.88365224940533,37.470662061095595]}},{"type":"Feature","properties":{"OBJECTID":458,"Name":"Slater Run Vineyards","Address":"9030 John Mosby Hwy","City":"Upperville","State":"VA","Zip":20184,"Phone":"540.592.3042","Weddings":" ","PicnicArea":" ","Overnight":" ","Region":"Northern Virginia","FoodAvailable":" ","GiftShop":" ","TastingRoom":" ","GroupTour":" ","PrivateParty":" ","TastingFee":" ","Website":"http://www.slaterrunvineyards.com","VaWine_Website":"https://www.virginiawine.org/wineries/1992","VaWine_ID":1992,"GlobalID":"{45D2DAF5-2C05-4A02-9202-B1A46AD20E27}"},"geometry":{"type":"Point","coordinates":[-77.87651247168039,38.99244066853489]}},{"type":"Feature","properties":{"OBJECTID":459,"Name":"Spring Run Vineyards","Address":"10700 Spring Run Road","City":"Chesterfield","State":"VA","Zip":23832,"Phone":"(804)382-4529","Weddings":"Y","PicnicArea":"Y","Overnight":" ","Region":"Central Virginia","FoodAvailable":" ","GiftShop":" ","TastingRoom":" ","GroupTour":" ","PrivateParty":"Y","TastingFee":"Y","Website":"http://www.springrunvineyards.com","VaWine_Website":"https://www.virginiawine.org/wineries/1708","VaWine_ID":1708,"GlobalID":"{F9644173-F911-44B2-9C6E-C2F0C825E61E}"},"geometry":{"type":"Point","coordinates":[-77.59504290553804,37.36349740858538]}},{"type":"Feature","properties":{"OBJECTID":460,"Name":"Stanburn Winery","Address":"158 Conner Dr.","City":"Stuart","State":"VA","Zip":24171,"Phone":"276-694-7074","Weddings":" ","PicnicArea":" ","Overnight":" ","Region":"Blue Ridge","FoodAvailable":" ","GiftShop":" ","TastingRoom":" ","GroupTour":" ","PrivateParty":" ","TastingFee":" ","Website":"http://www.stanburnwinery.com","VaWine_Website":"https://www.virginiawine.org/wineries/1136","VaWine_ID":1136,"GlobalID":"{FD708C45-8E36-4DB8-B7E0-F7EAD429AE87}"},"geometry":{"type":"Point","coordinates":[-80.19611976892651,36.58794202348191]}},{"type":"Feature","properties":{"OBJECTID":461,"Name":"Stinson Vineyards","Address":"4744 Sugar Hollow Road","City":"Crozet","State":"VA","Zip":22932,"Phone":"434.823.7300","Weddings":"Y","PicnicArea":"Y","Overnight":" ","Region":"Central Virginia","FoodAvailable":"Y","GiftShop":"Y","TastingRoom":"Y","GroupTour":"Y","PrivateParty":"Y","TastingFee":" ","Website":"http://www.stinsonvineyards.com","VaWine_Website":"https://www.virginiawine.org/wineries/1140","VaWine_ID":1140,"GlobalID":"{302B27C7-0F24-4A82-9DC0-53AFC02D4E44}"},"geometry":{"type":"Point","coordinates":[-78.66501823580766,38.11978471514389]}},{"type":"Feature","properties":{"OBJECTID":462,"Name":"Stone House Meadery","Address":"36580 Shoemaker School Road","City":"Purcellville","State":"VA","Zip":20132,"Phone":5715120763,"Weddings":" ","PicnicArea":" ","Overnight":" ","Region":"Northern Virginia","FoodAvailable":" ","GiftShop":" ","TastingRoom":" ","GroupTour":" ","PrivateParty":" ","TastingFee":" ","Website":"http://www.stonehousemeadery.com","VaWine_Website":"https://www.virginiawine.org/wineries/1604","VaWine_ID":1604,"GlobalID":"{22D42674-5FB8-4A4F-9D9E-3813D9D8F9FB}"},"geometry":{"type":"Point","coordinates":[-77.74066679352494,39.08754546494022]}},{"type":"Feature","properties":{"OBJECTID":463,"Name":"Stone Mountain Vineyards","Address":"1376 Wyatt Mountain Road","City":"Dyke","State":"VA","Zip":22935,"Phone":"434-990-9463","Weddings":"Y","PicnicArea":"Y","Overnight":" ","Region":"Central Virginia","FoodAvailable":"Y","GiftShop":" ","TastingRoom":"Y","GroupTour":"Y","PrivateParty":"Y","TastingFee":"Y","Website":"http://www.stonemountainvineyards.com","VaWine_Website":"https://www.virginiawine.org/wineries/36","VaWine_ID":36,"GlobalID":"{81346D4E-1222-4003-8C94-11F345450B01}"},"geometry":{"type":"Point","coordinates":[-78.58733588980026,38.27981470562478]}},{"type":"Feature","properties":{"OBJECTID":464,"Name":"Stone Tower Winery","Address":"19925 Hogback Mountain Rd","City":"Leesburg","State":"VA","Zip":20175,"Phone":"(703) 777-2797","Weddings":" ","PicnicArea":" ","Overnight":" ","Region":"Northern Virginia","FoodAvailable":" ","GiftShop":" ","TastingRoom":" ","GroupTour":" ","PrivateParty":" ","TastingFee":"Y","Website":"http://www.stonetowerwinery.com/","VaWine_Website":"https://www.virginiawine.org/wineries/1600","VaWine_ID":1600,"GlobalID":"{58B694C1-6F2A-4714-BD52-55D37586F20F}"},"geometry":{"type":"Point","coordinates":[-77.63488291915179,39.064085398376264]}},{"type":"Feature","properties":{"OBJECTID":465,"Name":"Sunset Hills Vineyard","Address":"38295 Fremont Overlook Lane","City":"Purcellville","State":"Virginia","Zip":20132,"Phone":"540-882-4560","Weddings":" ","PicnicArea":" ","Overnight":" ","Region":"Northern Virginia","FoodAvailable":" ","GiftShop":" ","TastingRoom":" ","GroupTour":" ","PrivateParty":" ","TastingFee":"Y","Website":"http://www.sunsethillsvineyard.com/","VaWine_Website":"https://www.virginiawine.org/wineries/103","VaWine_ID":103,"GlobalID":"{E3C0BBE7-A09F-4EF3-9E47-8DE972441DDD}"},"geometry":{"type":"Point","coordinates":[-77.67811599294025,39.18010887601404]}},{"type":"Feature","properties":{"OBJECTID":466,"Name":"Tarara Winery","Address":"13648 Tarara Lane","City":"Leesburg","State":"Virginia","Zip":20176,"Phone":"703-771-7100","Weddings":" ","PicnicArea":" ","Overnight":" ","Region":"Northern Virginia","FoodAvailable":" ","GiftShop":" ","TastingRoom":" ","GroupTour":" ","PrivateParty":" ","TastingFee":" ","Website":"http://www.tarara.com","VaWine_Website":"https://www.virginiawine.org/wineries/13","VaWine_ID":13,"GlobalID":"{9EA8BDD1-C2E9-473D-B7A7-9F2BBD90C423}"},"geometry":{"type":"Point","coordinates":[-77.47969694191892,39.23710530017677]}},{"type":"Feature","properties":{"OBJECTID":467,"Name":"Terra Nebulo Vineyards","Address":"39892 Old Wheatland Rd","City":"Waterford","State":"VA","Zip":20197,"Phone":"540-882-3800","Weddings":" ","PicnicArea":" ","Overnight":" ","Region":" ","FoodAvailable":" ","GiftShop":" ","TastingRoom":" ","GroupTour":" ","PrivateParty":" ","TastingFee":" ","Website":"http://www.terranebulo.com","VaWine_Website":"https://www.virginiawine.org/wineries/1842","VaWine_ID":1842,"GlobalID":"{A275B101-E47E-4CA3-AE91-F8D74ED86507}"},"geometry":{"type":"Point","coordinates":[-77.62184468092578,39.19167298738109]}},{"type":"Feature","properties":{"OBJECTID":468,"Name":"The Barns at Hamilton Station Vineyards","Address":"16804 Hamilton Station Road","City":"Hamilton","State":"VA","Zip":20158,"Phone":"540-338-5309","Weddings":"Y","PicnicArea":"Y","Overnight":" ","Region":"Northern Virginia","FoodAvailable":"Y","GiftShop":"Y","TastingRoom":" ","GroupTour":" ","PrivateParty":"Y","TastingFee":" ","Website":"http://www.thebarnsathamiltonstation.com","VaWine_Website":"https://www.virginiawine.org/wineries/1504","VaWine_ID":1504,"GlobalID":"{375E1BFA-7CDF-4806-BFAB-E67CA21F0A69}"},"geometry":{"type":"Point","coordinates":[-77.64522555084355,39.152330007189065]}},{"type":"Feature","properties":{"OBJECTID":469,"Name":"The Dog and Oyster Vineyard","Address":"170 White Fences Drive (Vineyard)","City":"Irvington","State":"VA","Zip":22480,"Phone":"1-804-438-WINE (9643)","Weddings":" ","PicnicArea":" ","Overnight":" ","Region":"Chesapeake Bay","FoodAvailable":" ","GiftShop":" ","TastingRoom":" ","GroupTour":" ","PrivateParty":" ","TastingFee":" ","Website":"http://www.hopeandglory.com/thevineyard/winery.html","VaWine_Website":"https://www.virginiawine.org/wineries/1495","VaWine_ID":1495,"GlobalID":"{06750E0C-47B6-45C7-9D96-C915B271151B}"},"geometry":{"type":"Point","coordinates":[-76.41343464035094,37.663969514290486]}},{"type":"Feature","properties":{"OBJECTID":470,"Name":"The Hague Winery","Address":"8268 Cople Highway","City":"Hague","State":"Virginia","Zip":22469,"Phone":"804 472 5283","Weddings":" ","PicnicArea":" ","Overnight":"Y","Region":"Chesapeake Bay","FoodAvailable":"Y","GiftShop":" ","TastingRoom":"Y","GroupTour":"Y","PrivateParty":" ","TastingFee":" ","Website":"http://www.thehaguewinery.com","VaWine_Website":"https://www.virginiawine.org/wineries/215","VaWine_ID":215,"GlobalID":"{BED69B22-4A05-4696-B23D-2B8AF7952274}"},"geometry":{"type":"Point","coordinates":[-76.65607942705745,38.07170833295625]}},{"type":"Feature","properties":{"OBJECTID":471,"Name":"The Vineyards & Winery at Lost Creek","Address":"43277 Spinks Ferry Rd","City":"Leesburg","State":"Virginia","Zip":20176,"Phone":"703-443-9836","Weddings":"Y","PicnicArea":"Y","Overnight":" ","Region":"Northern Virginia","FoodAvailable":"Y","GiftShop":"Y","TastingRoom":"Y","GroupTour":"Y","PrivateParty":"Y","TastingFee":"Y","Website":"http://www.lostcreekwinery.com","VaWine_Website":"https://www.virginiawine.org/wineries/81","VaWine_ID":81,"GlobalID":"{4D785969-1393-43D2-8A60-50631DCB7558}"},"geometry":{"type":"Point","coordinates":[-77.49558838368363,39.2031458864689]}},{"type":"Feature","properties":{"OBJECTID":472,"Name":"The Winery at Bull Run","Address":"15950 Lee Highway","City":"Centreville","State":"VA","Zip":20120,"Phone":"(703) 815-2233 Ext. 107","Weddings":" ","PicnicArea":"Y","Overnight":" ","Region":"Northern Virginia","FoodAvailable":"Y","GiftShop":"Y","TastingRoom":" ","GroupTour":" ","PrivateParty":"Y","TastingFee":"Y","Website":"http://www.wineryatbullrun.com","VaWine_Website":"https://www.virginiawine.org/wineries/1591","VaWine_ID":1591,"GlobalID":"{1C0FE918-B92D-4A03-974D-15314CF1DE10}"},"geometry":{"type":"Point","coordinates":[-77.4993672140889,38.82754384987322]}},{"type":"Feature","properties":{"OBJECTID":473,"Name":"The Winery at La Grange","Address":"4970 Antioch Road","City":"Haymarket","State":"Virginia","Zip":20169,"Phone":"703-753-9360","Weddings":" ","PicnicArea":" ","Overnight":" ","Region":"Northern Virginia","FoodAvailable":" ","GiftShop":" ","TastingRoom":" ","GroupTour":" ","PrivateParty":" ","TastingFee":" ","Website":"http://www.wineryatlagrange.com/","VaWine_Website":"https://www.virginiawine.org/wineries/58","VaWine_ID":58,"GlobalID":"{3817846D-21C3-4AD8-BD6D-B63D73433597}"},"geometry":{"type":"Point","coordinates":[-77.68613164196928,38.85089765877445]}},{"type":"Feature","properties":{"OBJECTID":474,"Name":"Thistle Gate Vineyard","Address":"5199 West River Rd.","City":"Scottsville","State":"VA","Zip":24590,"Phone":"434-286-7781","Weddings":" ","PicnicArea":" ","Overnight":" ","Region":"Central Virginia","FoodAvailable":" ","GiftShop":" ","TastingRoom":" ","GroupTour":" ","PrivateParty":" ","TastingFee":"Y","Website":"http://www.Thistlegatevineyard.com","VaWine_Website":"https://www.virginiawine.org/wineries/1149","VaWine_ID":1149,"GlobalID":"{EC74A6F7-B5C4-4972-8BE6-A7364672415D}"},"geometry":{"type":"Point","coordinates":[-78.40558165063693,37.78923760703309]}},{"type":"Feature","properties":{"OBJECTID":475,"Name":"Three Fox Vineyards","Address":"10100 Three Fox Lane","City":"Delaplane","State":"Virginia","Zip":20144,"Phone":"540-364-6073","Weddings":" ","PicnicArea":" ","Overnight":" ","Region":"Northern Virginia","FoodAvailable":" ","GiftShop":" ","TastingRoom":" ","GroupTour":" ","PrivateParty":" ","TastingFee":"Y","Website":"http://www.threefoxvineyards.com","VaWine_Website":"https://www.virginiawine.org/wineries/60","VaWine_ID":60,"GlobalID":"{4E0A6647-4022-409F-9356-EA8A0291BC26}"},"geometry":{"type":"Point","coordinates":[-77.92658706300331,38.91651665846983]}},{"type":"Feature","properties":{"OBJECTID":476,"Name":"Three Sisters of Shiney Rock","Address":"5484 Shiney Rock Rd","City":"Clarksville","State":"VA","Zip":23927,"Phone":8044979630,"Weddings":" ","PicnicArea":"Y","Overnight":" ","Region":"Southern Virginia","FoodAvailable":" ","GiftShop":" ","TastingRoom":"Y","GroupTour":"Y","PrivateParty":"Y","TastingFee":" ","Website":"http://ThreeSistersOfShineyrock.com","VaWine_Website":"https://www.virginiawine.org/wineries/1615","VaWine_ID":1615,"GlobalID":"{85662BAC-5EDF-4DBE-B43F-1C77E327E3FB}"},"geometry":{"type":"Point","coordinates":[-78.59955784459979,36.551862483740926]}},{"type":"Feature","properties":{"OBJECTID":477,"Name":"Tomahawk Mill Winery","Address":"9221 Anderson Mill Road","City":"Chatham","State":"VA","Zip":24531,"Phone":"434-432-1063","Weddings":" ","PicnicArea":" ","Overnight":" ","Region":"Southern Virginia","FoodAvailable":" ","GiftShop":" ","TastingRoom":" ","GroupTour":" ","PrivateParty":" ","TastingFee":" ","Website":"http://www.tomahawkmill.com","VaWine_Website":"https://www.virginiawine.org/wineries/94","VaWine_ID":94,"GlobalID":"{6CDF75CE-59BA-4A31-8BF2-7FADF6CE0A53}"},"geometry":{"type":"Point","coordinates":[-79.5393977919779,36.88215059799283]}},{"type":"Feature","properties":{"OBJECTID":478,"Name":"Trump Winery","Address":"3550 Blenheim Road","City":"Charlottesville","State":"VA","Zip":22902,"Phone":"434-977-3895","Weddings":"Y","PicnicArea":"Y","Overnight":" ","Region":"Central Virginia","FoodAvailable":" ","GiftShop":"Y","TastingRoom":" ","GroupTour":" ","PrivateParty":"Y","TastingFee":"Y","Website":"http://www.TrumpWinery.com","VaWine_Website":"https://www.virginiawine.org/wineries/1494","VaWine_ID":1494,"GlobalID":"{47B9E5A5-6732-4C1F-B2A2-BD280D6B76F3}"},"geometry":{"type":"Point","coordinates":[-78.49867085128388,37.93907429919378]}},{"type":"Feature","properties":{"OBJECTID":479,"Name":"Turk Mountain Vineyards","Address":"8982 Dick Woods Rd","City":"Afton","State":"VA","Zip":22920,"Phone":"434-989-2182","Weddings":" ","PicnicArea":" ","Overnight":" ","Region":"Central Virginia","FoodAvailable":" ","GiftShop":" ","TastingRoom":" ","GroupTour":" ","PrivateParty":" ","TastingFee":" ","Website":"http://www.turkmountainvineyards.com","VaWine_Website":"https://www.virginiawine.org/wineries/1141","VaWine_ID":1141,"GlobalID":"{277EEC7F-5BB5-4DB7-B9D4-065235111B9A}"},"geometry":{"type":"Point","coordinates":[-78.81096863635757,38.01971364803231]}},{"type":"Feature","properties":{"OBJECTID":480,"Name":"Twin Oaks Tavern Winery","Address":"18035 Raven Rocks Rd","City":"Bluemont","State":"Virginia","Zip":20135,"Phone":"202-255-5009/ 540-554-4547","Weddings":" ","PicnicArea":" ","Overnight":" ","Region":"Shenandoah Valley","FoodAvailable":" ","GiftShop":" ","TastingRoom":" ","GroupTour":" ","PrivateParty":" ","TastingFee":" ","Website":"http://www.twinoakstavernwinery.com","VaWine_Website":"https://www.virginiawine.org/wineries/174","VaWine_ID":174,"GlobalID":"{2C680E66-5F4E-46C7-A1DB-B70858B75F18}"},"geometry":{"type":"Point","coordinates":[-77.84497448138245,39.12102678495655]}},{"type":"Feature","properties":{"OBJECTID":481,"Name":"Two Twisted Posts Winery","Address":"12944 Harpers Ferry Rd","City":"Purcellville","State":"VA","Zip":20132,"Phone":"540.668.6540","Weddings":" ","PicnicArea":" ","Overnight":" ","Region":"Northern Virginia","FoodAvailable":" ","GiftShop":" ","TastingRoom":" ","GroupTour":" ","PrivateParty":" ","TastingFee":" ","Website":"http://www.twotwistedposts.com","VaWine_Website":"https://www.virginiawine.org/wineries/1716","VaWine_ID":1716,"GlobalID":"{BE750724-4728-498B-98AC-3377CA887A49}"},"geometry":{"type":"Point","coordinates":[-77.7213862434867,39.25925048792052]}},{"type":"Feature","properties":{"OBJECTID":482,"Name":"Upper Shirley Vineyards","Address":"600 Shirley Plantation Road","City":"Charles City","State":"VA","Zip":23030,"Phone":"804-829-WINE (9463)","Weddings":" ","PicnicArea":" ","Overnight":" ","Region":"Hampton Roads","FoodAvailable":" ","GiftShop":" ","TastingRoom":" ","GroupTour":" ","PrivateParty":" ","TastingFee":" ","Website":"http://www.uppershirley.com","VaWine_Website":"https://www.virginiawine.org/wineries/1952","VaWine_ID":1952,"GlobalID":"{AF13A838-7C05-4162-8280-F5C352E954E5}"},"geometry":{"type":"Point","coordinates":[-77.25568363120246,37.345776719651504]}},{"type":"Feature","properties":{"OBJECTID":483,"Name":"Valerie Hill Vineyard & Winery","Address":"1687 Marlboro Road","City":"Stephens City","State":"VA","Zip":22655,"Phone":"(540) 869-9567","Weddings":" ","PicnicArea":" ","Overnight":" ","Region":"Shenandoah Valley","FoodAvailable":" ","GiftShop":" ","TastingRoom":" ","GroupTour":" ","PrivateParty":" ","TastingFee":" ","Website":"http://www.valeriehillwinery.com","VaWine_Website":"https://www.virginiawine.org/wineries/1596","VaWine_ID":1596,"GlobalID":"{7F5BE2F1-C278-4EB7-9688-00D4FE46E819}"},"geometry":{"type":"Point","coordinates":[-78.27359807597153,39.09022945501152]}},{"type":"Feature","properties":{"OBJECTID":484,"Name":"Valhalla Vineyards","Address":"6500 Mt. Chestnut Rd.","City":"Roanoke","State":"VA","Zip":24018,"Phone":"(540) 725-9463","Weddings":" ","PicnicArea":" ","Overnight":" ","Region":"Shenandoah Valley","FoodAvailable":" ","GiftShop":" ","TastingRoom":" ","GroupTour":" ","PrivateParty":" ","TastingFee":"Y","Website":"http://www.valhallawines.com","VaWine_Website":"https://www.virginiawine.org/wineries/134","VaWine_ID":134,"GlobalID":"{A17AA3AE-7BD5-47C1-9972-570E4A1DE5DB}"},"geometry":{"type":"Point","coordinates":[-80.05386832916743,37.22316445665183]}},{"type":"Feature","properties":{"OBJECTID":485,"Name":"Vault Field Vineyards","Address":"2953 Kings Mill Rd.","City":"Kinsale","State":"VA","Zip":22488,"Phone":"804-472-4430","Weddings":" ","PicnicArea":" ","Overnight":" ","Region":"Chesapeake Bay","FoodAvailable":" ","GiftShop":" ","TastingRoom":" ","GroupTour":" ","PrivateParty":" ","TastingFee":"Y","Website":"http://www.vaultfield.com","VaWine_Website":"https://www.virginiawine.org/wineries/74","VaWine_ID":74,"GlobalID":"{015CEA6D-D6C4-4C21-A55F-C1166B409C2B}"},"geometry":{"type":"Point","coordinates":[-76.62463446765459,38.016035655901106]}},{"type":"Feature","properties":{"OBJECTID":486,"Name":"Veramar Vineyard","Address":"905 Quarry Road","City":"Berryville","State":"VA","Zip":22611,"Phone":"540-955-5510","Weddings":" ","PicnicArea":" ","Overnight":" ","Region":"Shenandoah Valley","FoodAvailable":" ","GiftShop":" ","TastingRoom":" ","GroupTour":" ","PrivateParty":" ","TastingFee":" ","Website":"http://veramar.com","VaWine_Website":"https://www.virginiawine.org/wineries/3","VaWine_ID":3,"GlobalID":"{1FFE3A78-D606-4A70-8A68-1819762EA690}"},"geometry":{"type":"Point","coordinates":[-77.91461325482199,39.11800703125946]}},{"type":"Feature","properties":{"OBJECTID":487,"Name":"Veritas Winery","Address":"151 Veritas Lane","City":"Afton","State":"Virginia","Zip":22920,"Phone":"540-456-8000","Weddings":" ","PicnicArea":" ","Overnight":" ","Region":"Central Virginia","FoodAvailable":" ","GiftShop":" ","TastingRoom":" ","GroupTour":" ","PrivateParty":" ","TastingFee":"Y","Website":"http://www.veritaswines.com","VaWine_Website":"https://www.virginiawine.org/wineries/4","VaWine_ID":4,"GlobalID":"{F87CF6C6-C1C7-4BDA-BDA0-2F4F3EFD341D}"},"geometry":{"type":"Point","coordinates":[-78.83647289195574,38.01552573964294]}},{"type":"Feature","properties":{"OBJECTID":488,"Name":"Villa Appalaccia","Address":"752 Rock Castle Gorge Rd","City":"Floyd","State":"Virginia","Zip":24091,"Phone":5403580357,"Weddings":" ","PicnicArea":" ","Overnight":" ","Region":"Blue Ridge","FoodAvailable":" ","GiftShop":" ","TastingRoom":" ","GroupTour":" ","PrivateParty":" ","TastingFee":"Y","Website":"http://www.villaappalaccia.com","VaWine_Website":"https://www.virginiawine.org/wineries/15","VaWine_ID":15,"GlobalID":"{124A1970-7689-4D12-98C7-555E4BD96903}"},"geometry":{"type":"Point","coordinates":[-80.3489764091253,36.83211252465278]}},{"type":"Feature","properties":{"OBJECTID":489,"Name":"Village Winery","Address":"40405 Browns Lane","City":"Waterford","State":"Virginia","Zip":20197,"Phone":"(540) 882-3780","Weddings":" ","PicnicArea":" ","Overnight":" ","Region":"Northern Virginia","FoodAvailable":" ","GiftShop":" ","TastingRoom":" ","GroupTour":" ","PrivateParty":" ","TastingFee":" ","Website":"http://www.villagewineryandvineyards.com","VaWine_Website":"https://www.virginiawine.org/wineries/135","VaWine_ID":135,"GlobalID":"{80EDB645-A6B8-4918-875F-3B7D4D9C2BBD}"},"geometry":{"type":"Point","coordinates":[-77.60243569399579,39.1865627064723]}},{"type":"Feature","properties":{"OBJECTID":490,"Name":"Vincent's Vineyard","Address":"2313 East Main St","City":"Lebanon","State":"Virginia","Zip":24266,"Phone":"276 889 2505","Weddings":" ","PicnicArea":" ","Overnight":" ","Region":"Heart of Appalachia","FoodAvailable":" ","GiftShop":" ","TastingRoom":" ","GroupTour":" ","PrivateParty":"Y","TastingFee":" ","Website":"http://www.vincentsvineyard.com/","VaWine_Website":"https://www.virginiawine.org/wineries/143","VaWine_ID":143,"GlobalID":"{6DE3525F-27F3-4F46-9DAA-BE0AB7B33F6E}"},"geometry":{"type":"Point","coordinates":[-82.04899219201194,36.90656759637219]}},{"type":"Feature","properties":{"OBJECTID":491,"Name":"Vint Hill Craft Winery","Address":"7150 Lineweaver Road","City":"Warrenton","State":"VA","Zip":20187,"Phone":"540-351-0000","Weddings":" ","PicnicArea":" ","Overnight":" ","Region":"Northern Virginia","FoodAvailable":" ","GiftShop":" ","TastingRoom":" ","GroupTour":" ","PrivateParty":" ","TastingFee":" ","Website":"http://www.vinthillcraftwinery.com/","VaWine_Website":"https://www.virginiawine.org/wineries/280","VaWine_ID":280,"GlobalID":"{AB51FC9B-4054-4B39-A0E9-B709CB209845}"},"geometry":{"type":"Point","coordinates":[-77.6757946726931,38.74282260882743]}},{"type":"Feature","properties":{"OBJECTID":492,"Name":"Virginia Mountain Vineyards","Address":"4204 Old Fincastle Rd","City":"Fincastle","State":"Virginia","Zip":"24090-3559","Phone":"540-473-2979","Weddings":" ","PicnicArea":" ","Overnight":" ","Region":"Shenandoah Valley","FoodAvailable":"Y","GiftShop":"Y","TastingRoom":" ","GroupTour":" ","PrivateParty":" ","TastingFee":"Y","Website":"http://www.vmvines.com","VaWine_Website":"https://www.virginiawine.org/wineries/78","VaWine_ID":78,"GlobalID":"{DE1B448C-481A-4495-9F00-392DF15CCFA3}"},"geometry":{"type":"Point","coordinates":[-79.88125380065594,37.56984071915966]}},{"type":"Feature","properties":{"OBJECTID":493,"Name":"Webster C Hall Vineyards","Address":"2120 Webster Corner Road","City":"Callaway","State":"VA","Zip":24067,"Phone":" ","Weddings":" ","PicnicArea":" ","Overnight":" ","Region":"Shenandoah Valley","FoodAvailable":" ","GiftShop":" ","TastingRoom":" ","GroupTour":" ","PrivateParty":" ","TastingFee":"Y","Website":"http://www.websterchall.com/","VaWine_Website":"https://www.virginiawine.org/wineries/1715","VaWine_ID":1715,"GlobalID":"{2F58298E-3D43-4888-AEBE-446FF7EE3C3F}"},"geometry":{"type":"Point","coordinates":[-80.0432813450225,37.11250620852818]}},{"type":"Feature","properties":{"OBJECTID":494,"Name":"West Wind Farm Vineyard and Winery","Address":"180 West Wind Dr.","City":"Max Meadows","State":"Virginia","Zip":24360,"Phone":"276-699-2020","Weddings":"Y","PicnicArea":"Y","Overnight":" ","Region":"Blue Ridge","FoodAvailable":"Y","GiftShop":"Y","TastingRoom":"Y","GroupTour":"Y","PrivateParty":"Y","TastingFee":" ","Website":"http://www.westwindwine.com","VaWine_Website":"https://www.virginiawine.org/wineries/23","VaWine_ID":23,"GlobalID":"{C1663240-4A18-40FB-AE1F-9D21E158C8C8}"},"geometry":{"type":"Point","coordinates":[-80.90961354969531,36.902266156257625]}},{"type":"Feature","properties":{"OBJECTID":495,"Name":"Weston Farm Vineyard and Winery","Address":"206 Harris Creek Rd","City":"Louisa","State":"VA","Zip":23093,"Phone":"540-967-4647","Weddings":" ","PicnicArea":" ","Overnight":" ","Region":"Central Virginia","FoodAvailable":" ","GiftShop":" ","TastingRoom":" ","GroupTour":" ","PrivateParty":" ","TastingFee":" ","Website":"http://westonfarmvineyardandwinery.webs.com","VaWine_Website":"https://www.virginiawine.org/wineries/933","VaWine_ID":933,"GlobalID":"{89A200E8-5C93-4DC8-AB34-573E82B6862E}"},"geometry":{"type":"Point","coordinates":[-78.01377645412408,38.02142326790549]}},{"type":"Feature","properties":{"OBJECTID":496,"Name":"White Hall Vineyards","Address":"5282 Sugar Ridge Rd.","City":"Crozet","State":"Virginia","Zip":22932,"Phone":"434-823-8615","Weddings":" ","PicnicArea":" ","Overnight":" ","Region":"Central Virginia","FoodAvailable":" ","GiftShop":" ","TastingRoom":" ","GroupTour":" ","PrivateParty":" ","TastingFee":" ","Website":"http://www.whitehallvineyards.com","VaWine_Website":"https://www.virginiawine.org/wineries/90","VaWine_ID":90,"GlobalID":"{E12E8FDF-1113-4B8A-A703-FA680DBA3004}"},"geometry":{"type":"Point","coordinates":[-78.68407775243354,38.13489046566698]}},{"type":"Feature","properties":{"OBJECTID":497,"Name":"White Rock Vineyards & Winery","Address":"2117 Bruno Drive","City":"Goodview","State":"Virginia","Zip":24095,"Phone":"(540) 890-3359","Weddings":" ","PicnicArea":" ","Overnight":" ","Region":"Central Virginia","FoodAvailable":" ","GiftShop":" ","TastingRoom":" ","GroupTour":" ","PrivateParty":" ","TastingFee":" ","Website":"http://whiterockwines.com","VaWine_Website":"https://www.virginiawine.org/wineries/137","VaWine_ID":137,"GlobalID":"{726877F8-7CBA-4D10-9495-5CC55905E323}"},"geometry":{"type":"Point","coordinates":[-79.708137187322,37.23170547523037]}},{"type":"Feature","properties":{"OBJECTID":498,"Name":"Whitebarrel Winery","Address":"4025 Childress Road","City":"Christiansburg","State":"VA","Zip":24073,"Phone":"(540) 382-7619","Weddings":" ","PicnicArea":" ","Overnight":" ","Region":"Blue Ridge","FoodAvailable":" ","GiftShop":" ","TastingRoom":" ","GroupTour":" ","PrivateParty":" ","TastingFee":" ","Website":"http://www.whitebarrel.com","VaWine_Website":"https://www.virginiawine.org/wineries/977","VaWine_ID":977,"GlobalID":"{7B3620CA-91E2-4CCC-8986-A1A8CD382BCA}"},"geometry":{"type":"Point","coordinates":[-80.51337074273219,37.04846558890803]}},{"type":"Feature","properties":{"OBJECTID":499,"Name":"Wilderness Run Vineyards","Address":"11109 Plank Road","City":"Spotsylvania Courthouse","State":"VA","Zip":22553,"Phone":"540.841.2598","Weddings":" ","PicnicArea":" ","Overnight":" ","Region":"Northern Virginia","FoodAvailable":" ","GiftShop":" ","TastingRoom":" ","GroupTour":" ","PrivateParty":" ","TastingFee":"Y","Website":" ","VaWine_Website":"https://www.virginiawine.org/wineries/1712","VaWine_ID":1712,"GlobalID":"{2072DE28-639E-49CB-B079-70CF140AB29B}"},"geometry":{"type":"Point","coordinates":[-77.71901164967248,38.3272102366968]}},{"type":"Feature","properties":{"OBJECTID":500,"Name":"Williamsburg Winery","Address":"5800 Wessex Hundred","City":"Williamsburg","State":"Virginia","Zip":23185,"Phone":"757 229-0999 ext 129","Weddings":" ","PicnicArea":" ","Overnight":" ","Region":"Hampton Roads","FoodAvailable":" ","GiftShop":" ","TastingRoom":" ","GroupTour":" ","PrivateParty":" ","TastingFee":" ","Website":"http://www.williamsburgwinery.com","VaWine_Website":"https://www.virginiawine.org/wineries/29","VaWine_ID":29,"GlobalID":"{8994B808-BC66-4822-BB84-BA3173F1AAEF}"},"geometry":{"type":"Point","coordinates":[-76.71811987002799,37.232070706430555]}},{"type":"Feature","properties":{"OBJECTID":501,"Name":"Willowcroft Farm Vineyards","Address":"38906 Mt. Gilead Road","City":"Leesburg","State":"Virginia","Zip":20175,"Phone":"703-777-8161","Weddings":"Y","PicnicArea":"Y","Overnight":" ","Region":"Northern Virginia","FoodAvailable":"Y","GiftShop":" ","TastingRoom":" ","GroupTour":" ","PrivateParty":"Y","TastingFee":"Y","Website":"http://www.willowcroftwine.com","VaWine_Website":"https://www.virginiawine.org/wineries/97","VaWine_ID":97,"GlobalID":"{56604906-2AA5-4102-AC4A-7AEDC2BF67F6}"},"geometry":{"type":"Point","coordinates":[-77.6582631309883,39.07142645518988]}},{"type":"Feature","properties":{"OBJECTID":502,"Name":"Winchester Cider Works","Address":"2502 N. Frederick Pike","City":"Winchester","State":"Virginia","Zip":22603,"Phone":"540-550-3800","Weddings":" ","PicnicArea":"Y","Overnight":" ","Region":"Shenandoah Valley","FoodAvailable":" ","GiftShop":"Y","TastingRoom":"Y","GroupTour":"Y","PrivateParty":"Y","TastingFee":"Y","Website":"http://www.winchesterciderowrks.com","VaWine_Website":"https://www.virginiawine.org/wineries/1713","VaWine_ID":1713,"GlobalID":"{E275E658-BB05-4BBB-A4F6-4A60BB55EC3B}"},"geometry":{"type":"Point","coordinates":[-78.19931223925738,39.23138424879642]}},{"type":"Feature","properties":{"OBJECTID":503,"Name":"Winding Road Cellars","Address":"4289 Leeds Manor Road","City":"Markham","State":"VA","Zip":22643,"Phone":"540-364-1025","Weddings":" ","PicnicArea":" ","Overnight":" ","Region":"Northern Virginia","FoodAvailable":" ","GiftShop":" ","TastingRoom":" ","GroupTour":" ","PrivateParty":" ","TastingFee":" ","Website":"http://www.windingroadcellars.com/","VaWine_Website":"https://www.virginiawine.org/wineries/1692","VaWine_ID":1692,"GlobalID":"{6C9C517A-5283-48F8-97B6-D30DCFF5D02D}"},"geometry":{"type":"Point","coordinates":[-77.99464492124146,38.85353615334759]}},{"type":"Feature","properties":{"OBJECTID":504,"Name":"Winery 32","Address":"15066 Limestone School Road","City":"Leesburg","State":"VA","Zip":20176,"Phone":"(301) 943-9995 or (240) 687-1989","Weddings":" ","PicnicArea":" ","Overnight":" ","Region":" ","FoodAvailable":" ","GiftShop":" ","TastingRoom":" ","GroupTour":" ","PrivateParty":" ","TastingFee":" ","Website":"http://www.winery32.com","VaWine_Website":"https://www.virginiawine.org/wineries/1697","VaWine_ID":1697,"GlobalID":"{BE2033F3-AAF1-41AB-8F55-F93E7D08182E}"},"geometry":{"type":"Point","coordinates":[-77.5031785964432,39.19672670073141]}},{"type":"Feature","properties":{"OBJECTID":505,"Name":"Winery at Kindred Pointe","Address":"3575 Conicville Road","City":"Mount Jackson","State":"VA","Zip":22842,"Phone":"540-477-3570","Weddings":" ","PicnicArea":" ","Overnight":" ","Region":"Shenandoah Valley","FoodAvailable":" ","GiftShop":" ","TastingRoom":" ","GroupTour":" ","PrivateParty":" ","TastingFee":" ","Website":"http://www.kindredpointe.com","VaWine_Website":"https://www.virginiawine.org/wineries/1621","VaWine_ID":1621,"GlobalID":"{AAF16888-7D9F-41EA-AE83-C6DC45A9EDCF}"},"geometry":{"type":"Point","coordinates":[-78.65191197149147,38.79668054694429]}},{"type":"Feature","properties":{"OBJECTID":506,"Name":"Wisdom Oak Winery","Address":"3613 Walnut Branch Lane","City":"North Garden","State":"VA","Zip":22959,"Phone":" ","Weddings":" ","PicnicArea":" ","Overnight":" ","Region":" ","FoodAvailable":" ","GiftShop":" ","TastingRoom":" ","GroupTour":" ","PrivateParty":" ","TastingFee":" ","Website":"https://www.wisdomoakwinery.com ","VaWine_Website":"https://www.virginiawine.org/wineries/96","VaWine_ID":96,"GlobalID":"{8CA9528D-6A88-435E-A54C-20749C885B53}"},"geometry":{"type":"Point","coordinates":[-78.61335533876908,37.938729862206905]}},{"type":"Feature","properties":{"OBJECTID":507,"Name":"Wisteria Farm & Vineyard","Address":"1126 Marksville Rd.","City":"Stanley","State":"Virginia","Zip":22851,"Phone":"540-742-1489","Weddings":" ","PicnicArea":" ","Overnight":" ","Region":"Shenandoah Valley","FoodAvailable":" ","GiftShop":" ","TastingRoom":" ","GroupTour":" ","PrivateParty":" ","TastingFee":"Y","Website":"http://wisteriavineyard.com/","VaWine_Website":"https://www.virginiawine.org/wineries/243","VaWine_ID":243,"GlobalID":"{2E559C5E-074C-45F0-AEBB-216D292D8C14}"},"geometry":{"type":"Point","coordinates":[-78.474287111195,38.57426515240684]}},{"type":"Feature","properties":{"OBJECTID":508,"Name":"Wolf Gap Vineyard & Winery","Address":"123 Stout Road","City":"Edinburg","State":"Virginia","Zip":22824,"Phone":"(540) 984-3306","Weddings":" ","PicnicArea":" ","Overnight":" ","Region":"Shenandoah Valley","FoodAvailable":" ","GiftShop":" ","TastingRoom":" ","GroupTour":" ","PrivateParty":" ","TastingFee":" ","Website":"http://www.wolfgapvineyard.com","VaWine_Website":"https://www.virginiawine.org/wineries/138","VaWine_ID":138,"GlobalID":"{44769360-2DDD-4214-A6FD-51F5341CC928}"},"geometry":{"type":"Point","coordinates":[-78.63232428441978,38.82728678380574]}},{"type":"Feature","properties":{"OBJECTID":509,"Name":"Zephaniah Farm Vineyard","Address":"19381 Dunlop Mill Road","City":"Leesburg","State":"VA","Zip":20175,"Phone":"703.431.2016","Weddings":" ","PicnicArea":" ","Overnight":" ","Region":"Northern Virginia","FoodAvailable":" ","GiftShop":" ","TastingRoom":" ","GroupTour":" ","PrivateParty":" ","TastingFee":" ","Website":"http://www.zephwine.com","VaWine_Website":"https://www.virginiawine.org/wineries/116","VaWine_ID":116,"GlobalID":"{F6E7F25A-DC80-42FC-A203-E44945D4A26E}"},"geometry":{"type":"Point","coordinates":[-77.62267704504622,39.08182122529527]}},{"type":"Feature","properties":{"OBJECTID":510,"Name":"Hunting Creek Vineyards","Address":"2000 Addie Williams Trail","City":"Clover","State":"VA","Zip":24534,"Phone":4344549219,"Weddings":" ","PicnicArea":"Y","Overnight":" ","Region":"Southern Virginia","FoodAvailable":"Y","GiftShop":" ","TastingRoom":"Y","GroupTour":"Y","PrivateParty":"Y","TastingFee":" ","Website":"http://www.hcvwines.com","VaWine_Website":"https://www.virginiawine.org/wineries/836","VaWine_ID":836,"GlobalID":"{2DBD10D4-9653-4C81-863A-4054F9679483}"},"geometry":{"type":"Point","coordinates":[-78.78964041018386,36.93131507458427]}},{"type":"Feature","properties":{"OBJECTID":511,"Name":"The Homeplace Vineyard","Address":"568 Rigney Circle","City":"Chatham","State":"VA","Zip":24531,"Phone":"434-432-WINE","Weddings":"Y","PicnicArea":"Y","Overnight":" ","Region":"Southern Virginia","FoodAvailable":" ","GiftShop":"Y","TastingRoom":"Y","GroupTour":"Y","PrivateParty":"Y","TastingFee":"Y","Website":"http://www.thehomeplacevineyard.com/","VaWine_Website":"https://www.virginiawine.org/wineries/1129","VaWine_ID":1129,"GlobalID":"{53DAA983-F384-4A8F-8DEE-B9E74E573D2D}"},"geometry":{"type":"Point","coordinates":[-79.47351393529507,36.867759640704925]}},{"type":"Feature","properties":{"OBJECTID":512,"Name":"Monticello Wine Trail","Address":"PO Box 244","City":"Charlottesville","State":"VA","Zip":22902,"Phone":" ","Weddings":" ","PicnicArea":" ","Overnight":" ","Region":"Central Virginia","FoodAvailable":" ","GiftShop":" ","TastingRoom":" ","GroupTour":" ","PrivateParty":" ","TastingFee":" ","Website":"http://www.monticellowinetrail.com","VaWine_Website":"https://www.virginiawine.org/wineries/1972","VaWine_ID":1972,"GlobalID":"{3B7FEB35-DA77-46A3-BCC7-3E47852C055A}"},"geometry":{"type":"Point","coordinates":[-78.4855724323198,38.03742393449797]}},{"type":"Feature","properties":{"OBJECTID":513,"Name":"Iron Heart Winery","Address":"3742 Boone Furnace Road","City":"Allisonia","State":"VA","Zip":24347,"Phone":"540 320 0203","Weddings":"Y","PicnicArea":"Y","Overnight":"Y","Region":"Blue Ridge","FoodAvailable":"Y","GiftShop":"Y","TastingRoom":"Y","GroupTour":"Y","PrivateParty":"Y","TastingFee":"Y","Website":"http://www.ironheartwinery.com","VaWine_Website":"https://www.virginiawine.org/wineries/2212","VaWine_ID":2212,"GlobalID":"{6BA012FB-1356-4E3D-ABC3-63512BB67620}"},"geometry":{"type":"Point","coordinates":[-80.76915342657071,36.92073057440021]}},{"type":"Feature","properties":{"OBJECTID":514,"Name":"Cunningham Creek Winery","Address":"3304 Ruritan Lake Road","City":"Palmyra","State":"VA","Zip":22963,"Phone":"(434) 207-3907","Weddings":" ","PicnicArea":" ","Overnight":" ","Region":"Central Virginia","FoodAvailable":" ","GiftShop":" ","TastingRoom":" ","GroupTour":" ","PrivateParty":" ","TastingFee":"Y","Website":"http://www.cunninghamcreek.wine","VaWine_Website":"https://www.virginiawine.org/wineries/2222","VaWine_ID":2222,"GlobalID":"{8C566AAB-C724-477D-B27D-51DCE690C462}"},"geometry":{"type":"Point","coordinates":[-78.35820749102015,37.87948150758369]}},{"type":"Feature","properties":{"OBJECTID":515,"Name":"Wineworks Extended","Address":"1585 Avon Street Extended","City":"Charlottesville","State":"VA","Zip":22902,"Phone":"(434)529-6848","Weddings":" ","PicnicArea":" ","Overnight":" ","Region":"Central Virginia","FoodAvailable":" ","GiftShop":" ","TastingRoom":" ","GroupTour":" ","PrivateParty":" ","TastingFee":"Y","Website":"http://www.michaelshapswines.com","VaWine_Website":"https://www.virginiawine.org/wineries/2232","VaWine_ID":2232,"GlobalID":"{6418F12A-0C85-426E-A5F4-050778DCDF9E}"},"geometry":{"type":"Point","coordinates":[-78.49103869344786,38.00822548355382]}},{"type":"Feature","properties":{"OBJECTID":516,"Name":"Valley Road Vineyards","Address":"9264 Critzers Shop Road","City":"Afton","State":"VA","Zip":22920,"Phone":"540-456-6350","Weddings":" ","PicnicArea":"Y","Overnight":" ","Region":"Central Virginia","FoodAvailable":"Y","GiftShop":" ","TastingRoom":"Y","GroupTour":" ","PrivateParty":"Y","TastingFee":"Y","Website":"http://www.valleyroadwines.com","VaWine_Website":"https://www.virginiawine.org/wineries/2242","VaWine_ID":2242,"GlobalID":"{60D1D31A-8CB1-4A7E-9366-29576E1CD00D}"},"geometry":{"type":"Point","coordinates":[-78.82221748446968,38.02096427388177]}},{"type":"Feature","properties":{"OBJECTID":517,"Name":"The Wine Reserve at Waterford","Address":"38516 Charles Town Pike","City":"Waterford","State":"VA","Zip":20197,"Phone":"540-692-WINE (9463)","Weddings":"Y","PicnicArea":"Y","Overnight":" ","Region":"Northern Virginia","FoodAvailable":"Y","GiftShop":" ","TastingRoom":"Y","GroupTour":"Y","PrivateParty":"Y","TastingFee":" ","Website":"http://www.waterfordwinereserve.com","VaWine_Website":"https://www.virginiawine.org/wineries/2262","VaWine_ID":2262,"GlobalID":"{CC958130-ACE4-41C8-A685-3C46053B14A9}"},"geometry":{"type":"Point","coordinates":[-77.66981441140835,39.19051960929796]}},{"type":"Feature","properties":{"OBJECTID":518,"Name":"Giles Mountain Vineyard & Winery","Address":"290 Moye Road","City":"Staffordsville","State":"VA","Zip":24167,"Phone":"540-267-4125","Weddings":" ","PicnicArea":" ","Overnight":" ","Region":"Blue Ridge","FoodAvailable":" ","GiftShop":" ","TastingRoom":" ","GroupTour":" ","PrivateParty":" ","TastingFee":"Y","Website":"http://www.gilesmountainwinery.com","VaWine_Website":"https://www.virginiawine.org/wineries/2272","VaWine_ID":2272,"GlobalID":"{0936D3C2-53F5-44C9-A3D9-2D028220FFFD}"},"geometry":{"type":"Point","coordinates":[-80.71397669763141,37.247327566123445]}},{"type":"Feature","properties":{"OBJECTID":519,"Name":"Marceline Vineyards","Address":"1588 Cross Keys Rd","City":"Mt. Crawford","State":"VA","Zip":22841,"Phone":"540-212-9798","Weddings":" ","PicnicArea":" ","Overnight":" ","Region":"Shenandoah Valley","FoodAvailable":" ","GiftShop":" ","TastingRoom":" ","GroupTour":" ","PrivateParty":" ","TastingFee":"Y","Website":"http://www.Marcelinevineyards.com","VaWine_Website":"https://www.virginiawine.org/wineries/2282","VaWine_ID":2282,"GlobalID":"{5BE8BA33-2B3F-43E4-A06C-FA3804543FC6}"},"geometry":{"type":"Point","coordinates":[-78.94117135479738,38.36009894423882]}},{"type":"Feature","properties":{"OBJECTID":520,"Name":"Five Oaks Vineyard","Address":"4574 Belle Vista Drive","City":"Barboursville","State":"VA","Zip":22923,"Phone":"434-563-3822","Weddings":" ","PicnicArea":" ","Overnight":" ","Region":"Central Virginia","FoodAvailable":" ","GiftShop":" ","TastingRoom":" ","GroupTour":" ","PrivateParty":" ","TastingFee":"Y","Website":"http://www.fiveoaksvineyard.com","VaWine_Website":"https://www.virginiawine.org/wineries/2322","VaWine_ID":2322,"GlobalID":"{27E0F998-95E6-42D1-A463-65E4CC7EDE44}"},"geometry":{"type":"Point","coordinates":[-78.320728246622,38.138322874573724]}},{"type":"Feature","properties":{"OBJECTID":521,"Name":"Big Fish Cider Co.","Address":"59 Spruce Street","City":"Monterey","State":"VA","Zip":24465,"Phone":5404682322,"Weddings":" ","PicnicArea":" ","Overnight":" ","Region":"Virginia Mountains","FoodAvailable":" ","GiftShop":" ","TastingRoom":" ","GroupTour":" ","PrivateParty":" ","TastingFee":"Y","Website":"https://www.bigfishcider.com","VaWine_Website":"https://www.virginiawine.org/wineries/2342","VaWine_ID":2342,"GlobalID":"{2784FF9D-73B7-44F2-9EB9-78D44FD5672E}"},"geometry":{"type":"Point","coordinates":[-79.58283902342829,38.41230271700759]}},{"type":"Feature","properties":{"OBJECTID":522,"Name":"Brix & Columns Vineyards","Address":"1501 Dave Berry Road","City":"McGaheysville","State":"VA","Zip":22840,"Phone":"540-421-0339","Weddings":" ","PicnicArea":"Y","Overnight":" ","Region":"Shenandoah Valley","FoodAvailable":" ","GiftShop":" ","TastingRoom":" ","GroupTour":" ","PrivateParty":" ","TastingFee":"Y","Website":"https://www.brixandcolumns.com","VaWine_Website":"https://www.virginiawine.org/wineries/2352","VaWine_ID":2352,"GlobalID":"{4BAC7074-C368-4F86-A991-D3D6AC4C4429}"},"geometry":{"type":"Point","coordinates":[-78.69684169801967,38.36949737436527]}},{"type":"Feature","properties":{"OBJECTID":523,"Name":"Seven Doors Winery","Address":"5800 Johnson Mountain Rd","City":"Huddleston","State":"VA","Zip":24104,"Phone":5405899530,"Weddings":"Y","PicnicArea":"Y","Overnight":" ","Region":"Virginia Mountains","FoodAvailable":" ","GiftShop":" ","TastingRoom":"Y","GroupTour":"Y","PrivateParty":"Y","TastingFee":"Y","Website":"http://Www.sevendoorswinery.com","VaWine_Website":"https://www.virginiawine.org/wineries/2354","VaWine_ID":2354,"GlobalID":"{D5147DA9-E445-498C-ACA8-30089AD8A8F0}"},"geometry":{"type":"Point","coordinates":[-79.38723321648845,37.185158984767625]}},{"type":"Feature","properties":{"OBJECTID":524,"Name":"Courthouse Creek Cider","Address":"1581 Maidens Road","City":"Maidens","State":"VA","Zip":23102,"Phone":"(804) 543-3157","Weddings":" ","PicnicArea":" ","Overnight":" ","Region":"Central Virginia","FoodAvailable":" ","GiftShop":" ","TastingRoom":" ","GroupTour":" ","PrivateParty":" ","TastingFee":" ","Website":"http://courthousecreek.com/","VaWine_Website":"https://www.virginiawine.org/wineries/2358","VaWine_ID":2358,"GlobalID":"{8BB55715-9B19-430C-8E15-827630C1C7BB}"},"geometry":{"type":"Point","coordinates":[-77.8760952973007,37.67231850272862]}},{"type":"Feature","properties":{"OBJECTID":525,"Name":"Bozzo Vineyards","Address":"35226 Charles Town Pike","City":"Purcellville","State":"VA","Zip":20132,"Phone":"571-918-9001","Weddings":" ","PicnicArea":" ","Overnight":" ","Region":"Northern Virginia","FoodAvailable":" ","GiftShop":" ","TastingRoom":" ","GroupTour":" ","PrivateParty":" ","TastingFee":" ","Website":" ","VaWine_Website":"https://www.virginiawine.org/wineries/2359","VaWine_ID":2359,"GlobalID":"{A9989E19-92D5-463B-B847-70C694B29588}"},"geometry":{"type":"Point","coordinates":[-77.75436283498404,39.23839704535627]}},{"type":"Feature","properties":{"OBJECTID":526,"Name":"Wild Hare Cider","Address":"33735 Snickersville Tpke","City":"Bluemont","State":"VA","Zip":20135,"Phone":"703-216-8630","Weddings":" ","PicnicArea":" ","Overnight":" ","Region":"Northern Virginia","FoodAvailable":" ","GiftShop":" ","TastingRoom":" ","GroupTour":" ","PrivateParty":" ","TastingFee":" ","Website":"http://wildharecider.com/","VaWine_Website":"https://www.virginiawine.org/wineries/2360","VaWine_ID":2360,"GlobalID":"{2B99C172-F94D-4398-91AB-2EF6DD1E2EAA}"},"geometry":{"type":"Point","coordinates":[-77.83363130509011,39.11064613462211]}}]}